"address","parcel_id","latitude","longitude"
"849 LIVINGSTON AVE, Albany, NY, 12206","65.21-1-43",42.6771319,-73.7810297
"58 OSBORNE ST, Albany, NY, 12202","76.56-4-15",42.6423193,-73.76404922140763
"526 CENTRAL AVE, Albany, NY, 12206","65.37-3-53",42.6703989,-73.7793038
"33 SECOND AVE, Albany, NY, 12202","76.72-2-16",42.63782275,-73.76225224999999
"213 SPRUCE ST, Albany, NY, 12210","65.72-4-58",42.658,-73.7609854
"215 SPRUCE ST, Albany, NY, 12210","65.72-4-59",42.658099,-73.7609834
"617 THIRD ST, Albany, NY, 12206","65.30-1-62",42.6729148,-73.7762277
"505 S PEARL ST, Albany, NY, 12202","76.80-2-19",42.6356457,-73.761987
"88 MONTGOMERY ST, Albany, NY","76.27-1-10",42.6546257,-73.7473697
"26 ELM ST, Albany, NY, 12202","76.49-5-13",42.6458785,-73.7580574
"151 MYRTLE AVE, Albany, NY, 12202","76.40-2-28",42.64859635,-73.7652755
"26 SHERMAN ST, Albany, NY, 12210","65.80-1-30",42.6579129,-73.7637598
"309 WASHINGTON AVE, Albany, NY, 12206","65.71-3-43",42.65908,-73.7675532
"139 SHERIDAN AVE, Albany, NY, 12210","65.81-6-73",42.6562108,-73.7560613
"135 JEFFERSON ST, Albany, NY, 12210","76.32-4-32",42.6500733,-73.7643512
"78 SHERIDAN AVE, Albany, NY, 12210","76.26-2-35",42.6544599,-73.754254
"23 SPRUCE ST, Albany, NY, 12210","76.26-2-55",42.69956464395558,-73.82092303532833
"455 JAY ST, Albany, NY, 12203","65.61-2-60",42.6614693,-73.7785876
"35 BRADFORD ST, Albany, NY, 12206","65.71-1-37",42.6607489,-73.7687123
"226 ELK ST, Albany, NY, 12210","65.72-4-11",42.6586418,-73.7639162
"72 INDUSTRIAL PARK RD, Albany, NY, 12206","65.22-1-4",42.6750718,-73.7765096
"72 GREEN ST, Albany, NY, 12207","76.50-1-19",42.6465857,-73.7522886
"19 SPRUCE ST, Albany, NY, 12210","76.26-2-54",42.69963762196764,-73.82096730275333
"739 BROADWAY, Albany, NY","65.83-1-30",42.6559864,-73.7480683
"11 ELK ST, Albany, NY, 12207","76.26-3-35",42.6535,-73.7545904
"14 DALLIUS ST, Albany, NY, 12207","76.50-1-24",42.6467612,-73.7514464
"23 LIBERTY ST, Albany, NY, 12207","76.50-1-29",42.646559,-73.7510784
"870 S PEARL ST NEW, Albany, NY, 12202","87.10-2-4",42.62402745,-73.76718214082493
"301 ORANGE ST, Albany, NY, 12210","65.73-2-29",42.6593384,-73.7600498
"292 ORANGE ST, Albany, NY, 12210","65.73-2-36",42.6589781,-73.760243
"59 DELAWARE ST, Albany, NY, 12202","76.56-3-27",42.6414424,-73.7617196
"117 FOURTH AVE, Albany, NY, 12202","76.65-2-56",42.6394545,-73.759326
"230 ORANGE ST, Albany, NY, 12210","65.81-3-9",42.6575927,-73.7578883
"12 S SWAN ST, Albany, NY, 12210","65.81-3-29",42.6567784,-73.7567058
"232 SECOND ST, Albany, NY, 12206","65.64-6-27",42.6624958,-73.7609663
"134 LARK ST, Albany, NY, 12210","65.72-4-46",42.6583955,-73.7613344
"14 S SWAN ST, Albany, NY, 12210","65.81-3-30",42.6566975,-73.7567166
"132 LARK ST, Albany, NY, 12210","65.72-4-47",42.6584689,-73.7612506
"240 SECOND ST, Albany, NY, 12206","65.64-6-23",42.6626968,-73.7612338
"85 DANA AVE, Albany, NY, 12208","76.23-1-47",42.6540149,-73.7716329
"399 STATE ST, Albany, NY, 12210","65.80-3-50.-308",42.65721655,-73.76599333616315
"399 STATE ST, Albany, NY, 12210","65.80-3-50.-407",42.65721655,-73.76599333616315
"399 STATE ST, Albany, NY, 12210","65.80-3-50.-108",42.65721655,-73.76599333616315
"29 YARDBORO AVE, Albany, NY, 12205","53.57-1-9",42.6884635,-73.8025093
"399 STATE ST, Albany, NY, 12210","65.80-3-50.-601",42.65721655,-73.76599333616315
"2 SLIGO ST, Albany, NY, 12209","76.62-3-41",42.63972345,-73.77416030231944
"399 STATE ST, Albany, NY, 12210","65.80-3-50.-506",42.65721655,-73.76599333616315
"283 SHERMAN ST, Albany, NY, 12206","65.55-3-41",42.66474235,-73.77112534547118
"5 CUYLER ST, Albany, NY, 12202","76.64-4-47",42.6394823,-73.76292699922774
"44 KENOSHA ST, Albany, NY, 12209","76.77-2-77",42.634545700000004,-73.77926871983334
"20 FAY ST, Albany, NY, 12203","64.45-1-24",42.6682214,-73.8242197
"439 SECOND ST, Albany, NY, 12206","65.47-4-59",42.66732645,-73.768525
"286 THIRD ST, Albany, NY, 12206","65.56-2-39",42.6648513,-73.76310153561133
"108 ALEXANDER ST, Albany, NY, 12202","76.64-2-7",42.6410937,-73.7635468
"313 THIRD ST, Albany, NY, 12206","65.56-1-48",42.6656052,-73.76384180061125
"399 STATE ST, Albany, NY, 12210","65.80-3-50.-405",42.65721655,-73.76599333616315
"365 THIRD ST, Albany, NY, 12206","65.48-1-40",42.6668862,-73.76574821618664
"399 STATE ST, Albany, NY, 12210","65.80-3-50.-605",42.65721655,-73.76599333616315
"399 STATE ST, Albany, NY, 12210","65.80-3-50.-805",42.65721655,-73.76599333616315
"51 MERELINE AVE, Albany, NY, 12209","75.75-2-37",42.63945665,-73.79217827969043
"54 S SWAN ST, Albany, NY, 12210","76.25-2-19.-5401",42.655118,-73.7583566
"399 STATE ST, Albany, NY, 12210","65.80-3-50.-505",42.65721655,-73.76599333616315
"36 WESTERLO ST, Albany, NY, 12202","76.58-1-24.-8",42.643385300000006,-73.7529431564054
"399 STATE ST, Albany, NY, 12210","65.80-3-50.-303",42.65721655,-73.76599333616315
"399 STATE ST, Albany, NY, 12210","65.80-3-50.-403",42.65721655,-73.76599333616315
"46 KENOSHA ST, Albany, NY, 12209","76.77-2-76",42.63454645,-73.77942345
"399 STATE ST, Albany, NY, 12210","65.80-3-50.-703",42.65721655,-73.76599333616315
"399 STATE ST, Albany, NY, 12210","65.80-3-50.-803",42.65721655,-73.76599333616315
"364 MOUNTAIN ST, Albany, NY, 12209","75.84-1-22",42.63590335,-73.78353193497
"399 STATE ST, Albany, NY, 12210","65.80-3-50.-503",42.65721655,-73.76599333616315
"352 STATE ST, Albany, NY, 12210","65.80-3-55.-15",42.6556633,-73.764572
"10 PERKINS AVE, Albany, NY, 12203","63.36-2-25",42.673103850000004,-73.82806965
"352 STATE ST, Albany, NY, 12210","65.80-3-55.-32",42.6556633,-73.764572
"352 STATE ST, Albany, NY, 12210","65.80-3-55.-42",42.6556633,-73.764572
"40 WESTERLO ST, Albany, NY, 12202","76.58-1-26.-13",42.6434362,-73.7531261
"352 STATE ST, Albany, NY, 12210","65.80-3-55.-12",42.6556633,-73.764572
"62 WESTERLO ST, Albany, NY, 12202","76.58-1-46.-34",42.6438629,-73.7544807
"343 LIVINGSTON AVE, Albany, NY, 12206","65.57-1-54",42.664831050000004,-73.76026780000001
"310 DELAWARE AVE, Albany, NY","76.54-4-28",42.64263285,-73.77738865
"21 MORRIS ST, Albany, NY, 12208","76.31-1-24",42.6516146,-73.7690786
"454 ELK ST, Albany, NY, 12206","65.54-5-2",42.66604615,-73.77209220663283
"51 WESTERLO ST, Albany, NY, 12202","76.58-2-5.-17",42.64348765,-73.75416911960832
"32 LIEBEL ST, Albany, NY, 12202","76.71-3-57",42.63810185,-73.7665414
"116 KENOSHA ST, Albany, NY, 12209","75.84-1-48",42.635340049999996,-73.78450694355399
"155 THIRD AVE, Albany, NY, 12202","76.56-4-49",42.6416728,-73.76493687667241
"19 KENOSHA ST, Albany, NY, 12209","76.77-2-50",42.6348477,-73.77891384331446
"56 WESTERLO ST, Albany, NY, 12202","76.58-1-43.-24",42.6438065,-73.7542592
"52 S SWAN ST, Albany, NY, 12210","76.25-2-19.-5200",42.6551145,-73.7583372
"51 WESTERLO ST, Albany, NY, 12202","76.58-2-5.-18",42.64348765,-73.75416911960832
"118 BERKSHIRE BLVD, Albany, NY, 12203","64.47-1-36",42.667890850000006,-73.81377885
"148 LANCASTER ST, Albany, NY, 12210","76.24-6-65.-2",42.65315459999999,-73.76282026304168
"482 FIRST ST, Albany, NY, 12206","65.47-3-48",42.666872749999996,-73.77017355000001
"3 AVON ST, Albany, NY, 12203","64.29-1-66",42.67272405,-73.82697935585256
"2 ELMENDORF ST, Albany, NY, 12202","76.80-1-37",42.6351824,-73.7656722078634
"5 ADIRONDACK ST, Albany, NY, 12203","64.30-2-45",42.67236375,-73.81687479865963
"391 WHITEHALL RD, Albany, NY, 12208","75.32-2-62",42.6509209,-73.81054605057594
"208 BERKSHIRE BLVD, Albany, NY, 12203","64.38-4-2",42.67083715,-73.81774328975378
"38 LIEBEL ST, Albany, NY, 12202","76.71-3-55",42.63809705,-73.76683785
"8 LIEBEL ST, Albany, NY, 12202","76.72-4-55",42.6378946,-73.7655131
"21 GARDEN ST, Albany, NY, 12209","76.54-5-5",42.641736949999995,-73.77436952418233
"39 MC KINLEY ST, Albany, NY, 12206","64.36-1-31",42.67406595,-73.78724679999999
"37 ORLANDO AVE, Albany, NY, 12203","64.39-1-57",42.67063105,-73.81238965
"148 LANCASTER ST, Albany, NY, 12210","76.24-6-65.-5",42.65315459999999,-73.76282026304168
"47 KEELER DR, Albany, NY, 12208","75.32-1-81",42.65079045,-73.80489300801
"333 WHITEHALL RD, Albany, NY, 12208","75.40-1-16",42.649246000000005,-73.8060074460397
"12 CRESTWOOD CT, Albany, NY, 12208","75.32-1-41",42.651370650000004,-73.80640094097335
"9 ARTHUR DR, Albany, NY, 12208","75.32-1-84",42.6526458,-73.80592720135556
"24 JASE CT, Albany, NY, 12208","75.33-2-18",42.65154055,-73.80487950013654
"20 ARTHUR DR, Albany, NY, 12208","75.32-1-64",42.65214465,-73.80518075
"17 KEELER DR, Albany, NY, 12208","75.32-1-48",42.6505101,-73.8069306706223
"22 KEELER DR, Albany, NY, 12208","75.40-1-35",42.65007315,-73.80696199017794
"60 KEELER DR, Albany, NY, 12208","75.33-2-36",42.6511723,-73.80385865
"19 ARTHUR DR, Albany, NY, 12208","75.33-2-12",42.6524638,-73.80489670631607
"433 MAGAZINE ST, Albany, NY, 12203","64.29-3-33",42.6725335,-73.82409818550043
"9 SLINGERLAND ST, Albany, NY, 12202","76.63-1-28",42.63986155,-73.77139762483023
"56 KEELER DR, Albany, NY, 12208","75.33-2-38",42.6509755,-73.8040785
"241 CATHERINE ST, Albany, NY, 12209","76.55-1-23",42.64452044391165,-73.76959336636301
"60 WESTERLO ST, Albany, NY, 12202","76.58-1-45.-29",42.6438309,-73.7544356
"326G CORTLAND ST - CORTLAND ST, Albany, NY, 12208","64.74-3-9",42.6607987,-73.7964851
"31 HILLCREST AVE, Albany, NY, 12203","64.39-1-14",42.67152985,-73.8142507
"387 WHITEHALL RD, Albany, NY, 12208","75.32-2-60",42.6507737,-73.81020515
"14 GARDEN AVE, Albany, NY, 12203","64.29-1-58",42.6729553,-73.8267848
"18 CLAYTON PL, Albany, NY, 12209","75.51-1-50",42.645291799999995,-73.79281827666667
"462 THIRD ST, Albany, NY, 12206","65.47-1-9",42.66899695,-73.77009806542614
"405 WHITEHALL RD, Albany, NY, 12208","75.31-1-40",42.65134085,-73.81177920628943
"22 LAWN AVE, Albany, NY, 12204","66.21-2-29",42.67543355,-73.73769279999999
"39 KEELER DR, Albany, NY, 12208","75.32-1-77",42.650356099999996,-73.80539372844876
"7 JASE CT, Albany, NY, 12208","75.32-1-54",42.6509377,-73.80608983127627
"399 WHITEHALL RD, Albany, NY, 12208","75.31-1-43",42.65115615,-73.81125173820182
"409 MADISON AVE, Albany, NY, 12210","76.31-2-63.-203",42.6522319,-73.7669386
"20 REGENT ST, Albany, NY, 12202","76.71-1-16",42.6383294,-73.77018728179723
"11 CRAIGIE AVE, Albany, NY, 12205","53.73-1-51",42.681846050000004,-73.80068855036637
"35 EDENBURG AVE, Albany, NY, 12203","64.21-2-61",42.6751134,-73.8233545381996
"17 LILY ST, Albany, NY, 12205","53.65-1-22",42.6844933,-73.80075162842826
"80 VAN SCHOICK AVE, Albany, NY, 12208","75.33-1-38",42.65159595,-73.79977328835702
"83 KENOSHA ST, Albany, NY, 12209","76.77-1-57",42.63538345,-73.78230482146498
"2 CRESCENT DR, Albany, NY, 12208","64.78-1-8",42.6578619,-73.81626197316464
"539 THIRD ST, Albany, NY, 12206","65.38-1-49",42.6711719,-73.7732538
"38 STEPHEN ST, Albany, NY, 12202","76.72-1-43",42.638231,-73.7620486
"6 BUELL ST, Albany, NY, 12206","64.26-1-20",42.67689085,-73.79649519027778
"65 THIRD ST, Albany, NY, 12210","65.74-2-18",42.6598498,-73.75367225
"32 SLINGERLAND ST, Albany, NY, 12209","76.62-4-12",42.64049941273899,-73.77177448348385
"21 ALBION AVE, Albany, NY, 12209","75.75-1-50",42.63913985,-73.79016976410253
"25 LAWN AVE, Albany, NY, 12204","65.28-1-36",42.67606705,-73.73842706256082
"14 KEELER DR, Albany, NY, 12208","75.32-1-17",42.65031645,-73.80762328914878
"177 MILNER AVE, Albany, NY, 12208","64.63-3-7",42.66184485,-73.81301003298461
"169 HOLLYWOOD AVE, Albany, NY, 12209","75.42-1-71",42.648871549999996,-73.7973236
"10 VIEW AVE, Albany, NY, 12209","76.54-3-29",42.6441652,-73.77267033446883
"55 CARDINAL AVE, Albany, NY, 12208","75.34-1-46",42.65165505,-73.79778337758233
"399 STATE ST, Albany, NY, 12210","65.80-3-50.-306",42.65721655,-73.76599333616315
"49 GLENWOOD ST, Albany, NY, 12208","64.83-2-33",42.6567255,-73.791193243947
"306 MOUNTAIN ST, Albany, NY, 12209","76.77-2-36",42.63530645,-73.77991565650115
"290 MOUNTAIN ST, Albany, NY, 12209","76.77-2-44",42.635122949999996,-73.77860200848822
"283 MOUNTAIN ST, Albany, NY, 12209","76.77-2-17",42.635418,-73.77819032354591
"285 MOUNTAIN ST, Albany, NY, 12209","76.77-2-18",42.63544265,-73.77836464349149
"7 BOGARDUS RD, Albany, NY, 12208","64.65-1-56",42.66169325,-73.80382233809712
"292 MOUNTAIN ST, Albany, NY, 12209","76.77-2-43",42.635140199999995,-73.77886219999999
"7 FULLERTON ST, Albany, NY, 12209","75.59-3-17",42.64319355,-73.78991830000001
"299 MOUNTAIN ST, Albany, NY, 12209","76.77-2-25",42.635629550000004,-73.77938257930006
"301 MOUNTAIN ST, Albany, NY, 12209","76.77-2-26",42.63562614999999,-73.77952671488933
"291 MOUNTAIN ST, Albany, NY, 12209","76.77-2-21",42.6355171,-73.7788032
"155 SOUTHERN BLVD, Albany, NY, 12209","76.77-2-1",42.63605135,-73.78007055
"294 MOUNTAIN ST, Albany, NY, 12209","76.77-2-42",42.6351688,-73.7790218
"30 GLENDALE AVE, Albany, NY, 12208","75.36-1-20",42.65140265,-73.7880783
"421 LIVINGSTON AVE, Albany, NY, 12206","65.10-2-6",42.6681053,-73.7660834
"176 MILNER AVE, Albany, NY, 12208","64.63-2-24",42.6621109,-73.81351618932388
"186 MILNER AVE, Albany, NY, 12208","64.63-2-19",42.6615295,-73.81416641584853
"18 BUELL ST, Albany, NY, 12206","64.26-1-26",42.6773976,-73.7959568818907
"182 MILNER AVE, Albany, NY, 12208","64.63-2-21",42.661763050000005,-73.81392341610879
"443 MAGAZINE ST, Albany, NY, 12203","64.29-3-35",42.672243550000005,-73.82445952285204
"16 SWARTSON CT, Albany, NY, 12209","75.50-3-15",42.64508745,-73.79795923640724
"34 TAFT AVE, Albany, NY, 12203","64.21-2-54",42.67541575,-73.8229408
"89 ALEXANDER ST, Albany, NY, 12202","76.64-1-32",42.641102599999996,-73.7624739
"399 STATE ST, Albany, NY, 12210","65.80-3-50.-102",42.65721655,-73.76599333616315
"441 ELK ST, Albany, NY, 12206","65.55-2-52",42.66580935,-73.77134797647494
"145 BERKSHIRE BLVD, Albany, NY, 12203","64.47-1-3",42.669172849999995,-73.81511606372536
"115 FLEETWOOD AVE, Albany, NY, 12209","75.41-1-36",42.649241200000006,-73.802808560221
"1110 WESTERN AVE, Albany, NY, 12203","64.22-1-21.-2",42.6750295,-73.8194358
"195 HOLLYWOOD AVE, Albany, NY, 12209","75.42-1-58",42.6473584,-73.79824365513741
"33 RAMSEY PL, Albany, NY, 12208","75.35-1-36",42.651329149999995,-73.79304235000001
"399 STATE ST, Albany, NY, 12210","65.80-3-50.-302",42.65721655,-73.76599333616315
"399 STATE ST, Albany, NY, 12210","65.80-3-50.-402",42.65721655,-73.76599333616315
"49 ONDERDONK AVE, Albany, NY, 12208","64.74-3-33",42.65887085,-73.79856505628482
"187 MILNER AVE, Albany, NY, 12208","64.63-3-12",42.6612959,-73.8136180055547
"94 CARDINAL AVE, Albany, NY, 12209","75.41-2-45",42.64988445,-73.79999735000001
"46 TAFT AVE, Albany, NY, 12203","64.21-2-56",42.6752822,-73.82261250935954
"158 BROAD ST, Albany, NY, 12202","76.73-3-49",42.6376447,-73.76011061377326
"37 HAMPTON ST, Albany, NY, 12209","75.76-3-19",42.6373981,-73.78297265311187
"16 SARD RD, Albany, NY, 12209","75.68-2-28",42.64027955,-73.7882673
"122 THORNTON ST, Albany, NY, 12206","65.49-1-1",42.66788315,-73.75922575
"116 SOUTHERN BLVD, Albany, NY, 12209","76.77-1-5",42.6363355,-73.78191054999999
"39 MELROSE AVE, Albany, NY, 12203","64.42-1-66",42.67101205,-73.79743134351463
"13 FROST PL, Albany, NY, 12205","53.66-1-7",42.685394349999996,-73.7986659598883
"15 CRESTWOOD CT, Albany, NY, 12208","75.32-1-29",42.65172335,-73.80665470112399
"509 SECOND ST, Albany, NY, 12206","65.39-1-86",42.6690216,-73.77139093149216
"15 TREMONT ST, Albany, NY, 12205","53.66-2-8",42.684636,-73.7976171
"399 STATE ST, Albany, NY, 12210","65.80-3-50.-502",42.65721655,-73.76599333616315
"399 STATE ST, Albany, NY, 12210","65.80-3-50.-602",42.65721655,-73.76599333616315
"20 SWINTON ST, Albany, NY, 12206","65.56-5-38",42.6642561,-73.7608773585495
"316 SECOND ST, Albany, NY, 12206","65.56-3-15",42.664572199999995,-73.76438498784015
"47 JOHN DAVID LN, Albany, NY, 12208","75.31-1-34",42.65152425,-73.81100409213343
"109 ORLANDO AVE, Albany, NY, 12203","64.47-1-64",42.6675104,-73.81568232936894
"147 THIRD AVE, Albany, NY, 12202","76.56-4-53",42.64151355,-73.76463163102623
"93 DELAWARE ST, Albany, NY, 12202","76.56-4-20",42.64201465,-73.76400075000001
"229 ELM ST, Albany, NY, 12202","76.32-5-57",42.6503213,-73.7660573
"334 THIRD ST, Albany, NY, 12206","65.56-2-12",42.6659755,-73.76499986961664
"111 VAN SCHOICK AVE, Albany, NY, 12209","75.41-2-15",42.649000650000005,-73.80159475150407
"499 SECOND ST, Albany, NY, 12206","65.47-1-41",42.6687729,-73.7710251
"26 KAKELY ST, Albany, NY, 12208","64.72-2-9",42.66075755,-73.80675653055127
"56 WESTERLO ST, Albany, NY, 12202","76.58-1-43.-25",42.6438065,-73.7542592
"30 KAKELY ST, Albany, NY, 12208","64.72-2-7",42.6609738,-73.8065506395031
"13 SARD RD, Albany, NY, 12209","75.67-2-31",42.6404373,-73.7885772
"31 LINDBERGH AVE, Albany, NY, 12204","54.84-2-34",42.677446950000004,-73.73788802348577
"122 MOUNT HOPE DR, Albany, NY, 12202","87.23-2-13",42.631475800000004,-73.76790538358927
"349 MOUNTAIN ST, Albany, NY, 12209","76.77-1-30",42.6360721,-73.78246304999999
"97 DAYTONA AVE, Albany, NY, 12203","64.47-1-30",42.6684801,-73.81325614126472
"28 DAYTONA AVE, Albany, NY, 12203","64.39-1-66",42.670868,-73.81137268745039
"190 HACKETT BLVD, Albany, NY, 12209","75.42-1-74",42.6492826,-73.7970218
"20 VINE ST, Albany, NY, 12203","64.38-2-65",42.67112325,-73.8206321
"22 JOELSON CT, Albany, NY, 12209","75.50-2-56",42.6458924,-73.79382170940903
"124 SHAKER RD, Albany, NY, 12211","65.7-2-8",42.67517285,-73.75457293798283
"35 LAWN AVE, Albany, NY, 12204","65.28-1-41",42.676260150000005,-73.73898399275498
"25A PINE LN - PINE LN, Albany, NY, 12203","52.6-2-9.-2511",42.69662555,-73.85807831900381
"25A PINE LN - PINE LN, Albany, NY, 12203","52.6-2-9.-2518",42.69662555,-73.85807831900381
"25B PINE LN - PINE LN, Albany, NY, 12203","52.6-2-9.-2521",42.696285,-73.85788857169572
"25B PINE LN - PINE LN, Albany, NY, 12203","52.6-2-9.-2524",42.696285,-73.85788857169572
"25B PINE LN - PINE LN, Albany, NY, 12203","52.6-2-9.-2526",42.696285,-73.85788857169572
"25C PINE LN - PINE LN, Albany, NY, 12203","52.6-2-9.-2531",42.6960096,-73.85741959999999
"25C PINE LN - PINE LN, Albany, NY, 12203","52.6-2-9.-2534",42.6960096,-73.85741959999999
"25C PINE LN - PINE LN, Albany, NY, 12203","52.6-2-9.-2535",42.6960096,-73.85741959999999
"25D PINE LN - PINE LN, Albany, NY, 12203","52.6-2-9.-2548",42.695926299999996,-73.85695207850245
"25E PINE LN - PINE LN, Albany, NY, 12203","52.6-2-9.-2556",42.69633825,-73.85742801642921
"25E PINE LN - PINE LN, Albany, NY, 12203","52.6-2-9.-2558",42.69633825,-73.85742801642921
"58 SPRING ST, Albany, NY, 12210","65.80-3-19",42.6565003,-73.7643312
"25A PINE LN - PINE LN, Albany, NY, 12203","52.6-2-9.-2512",42.69662555,-73.85807831900381
"25A PINE LN - PINE LN, Albany, NY, 12203","52.6-2-9.-2517",42.69662555,-73.85807831900381
"25B PINE LN - PINE LN, Albany, NY, 12203","52.6-2-9.-2522",42.696285,-73.85788857169572
"25B PINE LN - PINE LN, Albany, NY, 12203","52.6-2-9.-2525",42.696285,-73.85788857169572
"25C PINE LN - PINE LN, Albany, NY, 12203","52.6-2-9.-2532",42.6960096,-73.85741959999999
"25C PINE LN - PINE LN, Albany, NY, 12203","52.6-2-9.-2536",42.6960096,-73.85741959999999
"25C PINE LN - PINE LN, Albany, NY, 12203","52.6-2-9.-2537",42.6960096,-73.85741959999999
"25D PINE LN - PINE LN, Albany, NY, 12203","52.6-2-9.-2545",42.695926299999996,-73.85695207850245
"25D PINE LN - PINE LN, Albany, NY, 12203","52.6-2-9.-2547",42.695926299999996,-73.85695207850245
"25E PINE LN - PINE LN, Albany, NY, 12203","52.6-2-9.-2553",42.69633825,-73.85742801642921
"25E PINE LN - PINE LN, Albany, NY, 12203","52.6-2-9.-2555",42.69633825,-73.85742801642921
"25E PINE LN - PINE LN, Albany, NY, 12203","52.6-2-9.-2557",42.69633825,-73.85742801642921
"141 WOODLAWN AVE, Albany, NY, 12208","64.84-4-11",42.655969850000005,-73.78767661576597
"46 HOLMES CT, Albany, NY, 12209","75.67-1-27",42.6405704,-73.79295855000001
"171 JEFFERSON ST, Albany, NY, 12210","76.32-4-48",42.650808100000006,-73.76561054755268
"112 BENSON ST, Albany, NY, 12206","65.45-3-21",42.66696195,-73.77975531089157
"48 CARDINAL AVE, Albany, NY, 12208","75.34-1-35",42.65243425,-73.79785064558439
"14 GINGERBREAD LN, Albany, NY, 12208","75.24-2-29",42.6530465,-73.8098419242026
"131 SHAKER RD, Albany, NY, 12211","65.7-3-6",42.675827299999995,-73.7544838472441
"122 VAN SCHOICK AVE, Albany, NY, 12209","75.41-1-53",42.64919055,-73.80208868266949
"51 RAYMO ST, Albany, NY, 12209","76.62-2-49",42.6410977,-73.77558455221671
"129 GREEN ST, Albany, NY, 12202","76.58-1-36.-41",42.6436533,-73.753628
"175 BROAD ST, Albany, NY, 12202","76.72-2-47",42.63646115,-73.76183139122921
"105 ALEXANDER ST, Albany, NY, 12202","76.64-1-39",42.64132805,-73.763408
"301 SHERIDAN AVE, Albany, NY, 12206","65.72-1-35",42.6604299,-73.7635482
"7 LIEBEL ST, Albany, NY, 12202","76.72-4-40",42.63817475,-73.76539795
"79 THIRD AVE, Albany, NY, 12202","76.64-2-57",42.64012595,-73.76222578296407
"365 MOUNTAIN ST, Albany, NY, 12209","75.76-4-38",42.636243750000006,-73.7835534067958
"24 GAGE AVE, Albany, NY, 12203","64.45-1-40",42.66912925,-73.82469063773243
"84 ONTARIO ST, Albany, NY, 12206","65.46-4-4",42.6690796,-73.77299070413622
"63 O'CONNELL ST, Albany, NY, 12209","76.62-3-75",42.641397684210524,-73.77472294736843
"1 ODELL ST, Albany, NY, 12202","76.72-3-55",42.6371835,-73.7642951364618
"47 BUELL ST, Albany, NY, 12206","53.82-2-18",42.67872075,-73.79391394022178
"31 BUELL ST, Albany, NY, 12206","53.82-2-10",42.67780205,-73.79488507999916
"35 BUELL ST, Albany, NY, 12206","53.82-2-12",42.6780227,-73.79465135287147
"35 MERELINE AVE, Albany, NY, 12209","75.75-2-31",42.639009650000006,-73.79136869999999
"32 KEELER DR, Albany, NY, 12208","75.40-1-30",42.64976155,-73.8061319584497
"11 JASE CT, Albany, NY, 12208","75.32-1-56",42.6511708,-73.80588409213863
"23 JASE CT, Albany, NY, 12208","75.32-1-62",42.65183555,-73.80522508226198
"9 KEELER DR, Albany, NY, 12208","75.32-1-21",42.65075105,-73.80760225471661
"5 JASE CT, Albany, NY, 12208","75.32-1-53",42.650830049999996,-73.80619530012979
"42 GLENDALE AVE, Albany, NY, 12208","75.36-1-25",42.6507891,-73.78816745
"114 BERKSHIRE BLVD, Albany, NY, 12203","64.47-1-34",42.667741500000005,-73.81351360000001
"638 CLINTON AVE, Albany, NY, 12206","65.46-3-9",42.66732845,-73.77296200743243
"681 STATE ST, Albany, NY, 12203","65.62-3-13",42.6631596,-73.7766763
"378 LIVINGSTON AVE, Albany, NY, 12206","65.56-1-20.1",42.665468149999995,-73.76202864891965
"682 N PEARL ST, Albany, NY, 12204","65.28-1-11",42.67682655,-73.73762926339714
"45 MELROSE AVE, Albany, NY, 12203","64.42-1-79",42.671306349999995,-73.79777019868058
"2 THURLOW TER, Albany, NY, 12203","65.17-2-13",42.6602508,-73.7732702
"4 BOGARDUS RD, Albany, NY, 12208","64.65-1-69",42.6612563,-73.803814967818
"49 KAKELY ST, Albany, NY, 12208","64.65-1-59",42.66177915,-73.80489655
"53 FROST PL, Albany, NY, 12205","53.65-2-22",42.684163749999996,-73.80000544655489
"56 BELVIDERE AVE, Albany, NY, 12203","64.33-1-41",42.672432799999996,-73.80306059495004
"108 BENSON ST, Albany, NY, 12206","65.45-3-23",42.6668626,-73.77954925
"40 MC KINLEY ST, Albany, NY, 12206","64.36-1-40",42.67382005,-73.78684621022728
"88 BEACON AVE, Albany, NY, 12203","64.38-4-13",42.67024255,-73.81789901038903
"110 YARDBORO AVE, Albany, NY, 12205","53.56-2-35",42.68892425,-73.80523501451697
"35 MELROSE AVE, Albany, NY, 12203","64.42-1-64",42.67086635,-73.79724486103274
"445 ELK ST, Albany, NY, 12206","65.55-2-54",42.66590695,-73.7715143
"53 HOLMES CT, Albany, NY, 12209","75.67-1-45",42.63997405,-73.79291764670417
"39 GLENWOOD ST, Albany, NY, 12208","64.83-2-29",42.65617375,-73.79148024067423
"47 WELLINGTON AVE, Albany, NY, 12203","64.38-4-37",42.6700962,-73.81925857892209
"37 ELMHURST AVE, Albany, NY, 12203","64.29-3-45",42.67230045,-73.82570848266508
"99 CHESTNUT ST, Albany, NY, 12210","76.24-7-50",42.65382525,-73.76186976477933
"113 ROSEMONT ST, Albany, NY, 12203","64.25-2-13",42.675706700000006,-73.80044281691528
"21 PARKWOOD ST, Albany, NY, 12208","75.27-1-24",42.655434650000004,-73.79302879584587
"17 SWARTSON CT, Albany, NY, 12209","75.50-3-33",42.64463835,-73.79771520196209
"32A PINE LN - PINE LN, Albany, NY, 12203","52.6-2-4.-3211",42.69723825,-73.85793037100046
"78 BRADFORD ST, Albany, NY, 12206","65.63-3-47",42.661806,-73.77049304150123
"48 QUAIL ST, Albany, NY, 12206","65.47-3-40",42.66754985,-73.76978295
"208 MOUNT HOPE DR, Albany, NY, 12202","87.23-2-55",42.6317518,-73.7708574
"212 MOUNT HOPE DR, Albany, NY, 12202","87.23-2-57",42.63176665,-73.77098085
"5 ZOAR AVE, Albany, NY, 12206","53.73-1-67",42.6804368,-73.8009395
"39 HAZELHURST AVE, Albany, NY, 12203","64.30-3-29",42.673263649999996,-73.8205487143052
"86 EILEEN ST, Albany, NY, 12203","64.26-3-10",42.674540050000004,-73.79935852762958
"206 N PEARL ST, Albany, NY, 12207","65.82-5-25.-103",42.6568752,-73.7499764
"197 RIDGEFIELD ST, Albany, NY, 12208","64.76-3-42",42.65915485,-73.7889745680732
"2 CRESTWOOD CT, Albany, NY, 12208","75.32-1-46",42.65078965,-73.80696407557956
"7 ADIRONDACK ST, Albany, NY, 12203","64.30-2-46",42.6721599,-73.81702435874456
"316 SHERMAN ST, Albany, NY, 12206","65.54-5-33",42.665524149999996,-73.77243824825774
"206 N PEARL ST, Albany, NY, 12207","65.82-5-25.-102",42.6568752,-73.7499764
"53 MAPLEWOOD AVE, Albany, NY, 12203","64.30-1-11",42.674504,-73.81911629999999
"57 MAPLEWOOD AVE, Albany, NY, 12203","64.30-1-9",42.6745911,-73.8194141
"988 WESTERN AVE, Albany, NY, 12203","64.31-1-34",42.67320075,-73.81378123442761
"81 SECOND AVE, Albany, NY, 12202","76.64-5-49",42.63882665,-73.76424015
"34 LINDBERGH AVE, Albany, NY, 12204","65.28-1-4",42.6772143,-73.73834049999999
"130 WINNIE ST, Albany, NY, 12208","64.81-2-32",42.65763805,-73.80286787872973
"20 ORLANDO AVE, Albany, NY, 12203","64.39-1-41",42.6715227,-73.812085
"16 JOHN DAVID LN, Albany, NY, 12208","75.32-2-23",42.65228175,-73.80913836887166
"23 PAR CIR, Albany, NY, 12208","75.5-4-22",42.65315,-73.8232715
"600 WARREN ST, Albany, NY, 12208","64.84-2-37",42.65663045,-73.783695044349
"17 ALBANY ST, Albany, NY, 12204","65.52-2-28",42.669005,-73.74114195978282
"34 EDENBURG AVE, Albany, NY, 12203","64.29-2-24",42.6748716,-73.82343785
"58 MILLER AVE, Albany, NY, 12203","64.30-3-3",42.674126,-73.8212574494789
"6 KAKELY ST, Albany, NY, 12208","64.72-2-25",42.6596753,-73.80795113950617
"257 HACKETT BLVD, Albany, NY, 12208","75.33-1-2",42.65245625,-73.80246980000001
"49 ORLANDO AVE, Albany, NY, 12203","64.39-3-26",42.67015985,-73.8129126
"19 GAGE AVE, Albany, NY, 12203","64.37-3-25",42.66948735,-73.82482747036696
"35 GLENWOOD ST, Albany, NY, 12208","64.83-2-27",42.655910649999996,-73.79160532133986
"70 MAPLEWOOD AVE, Albany, NY, 12203","64.30-2-4",42.67447235,-73.82019655631734
"359 MOUNTAIN ST, Albany, NY, 12209","75.76-4-36",42.63619245,-73.78323017760772
"379 MAGAZINE ST, Albany, NY, 12203","64.29-2-8",42.6745966,-73.82165666829269
"91 ROSE CT, Albany, NY, 12209","75.66-1-16",42.6411613,-73.79462823976792
"223 DAVIS AVE, Albany, NY, 12208","64.63-2-3",42.6629497,-73.81338231153092
"29 COLBY ST, Albany, NY, 12206","65.29-2-4",42.674946000000006,-73.78000945
"12 MERELINE AVE, Albany, NY, 12209","75.75-2-46",42.6382801,-73.79082217621647
"20 MARWILL ST, Albany, NY, 12209","75.59-3-41",42.6432172,-73.78850070208333
"53 BUELL ST, Albany, NY, 12206","53.82-2-21",42.6790698,-73.79354594971403
"51 BUELL ST, Albany, NY, 12206","53.82-2-20",42.678954649999994,-73.79366685990342
"352 STATE ST, Albany, NY, 12210","65.80-3-55.-17",42.6556633,-73.764572
"2 DARTMOUTH ST, Albany, NY, 12209","75.67-1-61",42.641155,-73.791218
"155 BENSON ST, Albany, NY, 12206","65.45-2-65",42.668292199999996,-73.7813082754157
"39 FLEETWOOD AVE, Albany, NY, 12208","75.26-1-35",42.6529647,-73.7994330988462
"359 WHITEHALL RD, Albany, NY, 12208","75.40-1-6",42.64985765,-73.80763769789178
"393 WHITEHALL RD, Albany, NY, 12208","75.32-2-63",42.6509782,-73.81074794321844
"18 PAR CIR, Albany, NY, 12208","75.5-4-44",42.6527781,-73.8221347
"944 MYRTLE AVE, Albany, NY, 12208","64.58-1-34",42.66572015,-73.79597286343844
"226 DAVIS AVE, Albany, NY, 12208","64.63-1-46",42.6631036,-73.81398474480272
"25 FIRST AVE, Albany, NY, 12202","76.80-2-3",42.635504749999996,-73.76339325000001
"11 STEPHEN ST, Albany, NY, 12202","76.64-4-30",42.63891595,-73.76172155874296
"26 WILSON ST, Albany, NY, 12207","65.82-5-51",42.6561895,-73.7503793
"20 AUSTAIN AVE, Albany, NY, 12205","53.66-2-27",42.684230299999996,-73.79762124999999
"61 DAYTONA AVE, Albany, NY, 12203","64.39-3-42",42.66942965,-73.8122247050901
"56 NORMANSIDE DR, Albany, NY, 12208","74.15-1-9",42.6440612,-73.8449484
"40 HILLCREST AVE, Albany, NY, 12203","64.39-2-27",42.6714166,-73.81502869830797
"213 MARION AVE, Albany, NY, 12208","64.65-2-25",42.661785550000005,-73.80273449017379
"101 CHESTNUT ST, Albany, NY, 12210","76.24-7-51",42.6538676,-73.76193306619922
"526 BRADFORD ST, Albany, NY, 12206","64.36-1-19",42.674663699999996,-73.78717173763758
"2 GRAY FOX LN, Albany, NY, 12203","41.13-4-25",42.7066489,-73.8661125
"50 O'CONNELL ST, Albany, NY, 12209","76.62-2-6",42.641054249999996,-73.774969
"268 TAMPA AVE, Albany, NY, 12208","64.62-1-21",42.6618237,-73.8181165723767
"3 ASPEN CT, Albany, NY, 12203","40.12-3-22",42.7126874,-73.8807971
"36 KEELER DR, Albany, NY, 12208","75.40-1-28",42.64963885,-73.80579259294923
"15 SECOND AVE, Albany, NY, 12202","76.73-4-27",42.637448,-73.761198
"423 THIRD ST, Albany, NY, 12206","65.47-5-31",42.6681337,-73.7678237
"76 VAN RENSSELAER BLVD, Albany, NY, 12204","65.8-2-11",42.67363785,-73.74518665377421
"986 NEW SCOTLAND RD, Albany, NY, 12208","75.5-4-61",42.6518573,-73.826968
"26 FOUNTAIN AVE, Albany, NY, 12203","64.45-2-30",42.66885465,-73.8222698
"1245 BROADWAY, Albany, NY, 12204","66.29-2-53",42.67248685,-73.7376264
"17 UPTON RD, Albany, NY, 12208","64.65-1-37",42.6626352,-73.80363720525975
"4 VICTOR ST, Albany, NY, 12206","53.81-1-36",42.6788634,-73.80077146025423
"152 ONTARIO ST, Albany, NY, 12206","65.54-2-75",42.665876749999995,-73.77616959893429
"99 CRESCENT DR, Albany, NY, 12208","64.78-2-32",42.65606305,-73.81767331104061
"3 HUNTER ST, Albany, NY, 12202","76.63-2-36",42.6400982,-73.7688086
"350 MOUNTAIN ST, Albany, NY, 12209","76.77-1-31",42.6357258,-73.78255157197535
"36 EDENBURG AVE, Albany, NY, 12203","64.29-2-25.1",42.6748804,-73.82354643964827
"14 FULLERTON ST, Albany, NY, 12209","75.59-2-42",42.643665049999996,-73.79003158787555
"115 DAYTONA AVE, Albany, NY, 12203","64.47-1-40",42.667403750000005,-73.81430489251846
"78 SYCAMORE ST, Albany, NY, 12208","75.34-2-14",42.651007750000005,-73.79697940230288
"22 BLANCHARD AVE, Albany, NY, 12203","64.37-1-35",42.67151565,-73.82670984999999
"26 BLANCHARD AVE, Albany, NY, 12203","64.37-1-36",42.6714122,-73.8268373
"18 CRESCENT DR, Albany, NY, 12208","64.70-1-24",42.6585473,-73.81752190034675
"10 JASE CT, Albany, NY, 12208","75.32-1-68",42.6508551,-73.8055192947121
"170 COTTAGE AVE, Albany, NY, 12203","64.29-3-26",42.6731369,-73.82525131291108
"399 STATE ST, Albany, NY, 12210","65.80-3-50.-104",42.65721655,-73.76599333616315
"17 FULLERTON ST, Albany, NY, 12209","75.59-3-12",42.64363545,-73.78949314757725
"92 KENOSHA ST, Albany, NY, 12209","76.77-1-60",42.63507265,-73.78269239484794
"9 CARY AVE, Albany, NY, 12208","75.5-3-37",42.6530433,-73.8267017
"16 VICTOR ST, Albany, NY, 12206","53.81-1-30",42.679506,-73.80010683461538
"77 LOWELL ST, Albany, NY, 12205","53.56-1-8",42.68813205,-73.80595539298315
"178 COLONIAL AVE, Albany, NY, 12208","64.63-3-19",42.66149795,-73.8126243649941
"106 HACKETT BLVD, Albany, NY, 12209","75.60-2-1",42.64418435,-73.78634046495085
"217 MARION AVE, Albany, NY, 12208","64.65-2-26",42.66159705,-73.80290157648318
"475 THIRD ST, Albany, NY, 12206","65.39-1-36",42.6695403,-73.7703549140266
"51 SLINGERLAND ST, Albany, NY, 12202","76.63-1-48",42.64129895,-73.77156794999999
"49 BUELL ST, Albany, NY, 12206","53.82-2-19",42.67883415,-73.79379071038917
"37 BUELL ST, Albany, NY, 12206","53.82-2-13",42.67814855,-73.7945170896701
"636 CLINTON AVE, Albany, NY, 12206","65.46-3-10",42.66728405,-73.77291310338278
"3 MOORE ST, Albany, NY, 12202","76.63-2-44",42.639667599999996,-73.76938807074177
"6 WOODLAWN AVE, Albany, NY, 12208","75.28-3-24",42.6532927,-73.78395885
"20 WELLINGTON AVE, Albany, NY, 12203","64.46-1-4",42.66916215,-73.81821360666666
"224 DAVIS AVE, Albany, NY, 12208","64.63-1-45",42.66322595,-73.81380564070312
"69 ADIRONDACK ST, Albany, NY, 12203","64.38-2-29",42.67036365,-73.81917292380734
"32 JOELSON CT, Albany, NY, 12209","75.51-1-12",42.64632555,-73.79336624532858
"42 ADIRONDACK ST, Albany, NY, 12203","64.38-4-4",42.6707322,-73.81811966275737
"42 O'CONNELL ST, Albany, NY, 12209","76.62-2-9",42.64077805,-73.77494214999999
"9 CRESTWOOD CT, Albany, NY, 12208","75.32-1-26",42.6514236,-73.80699106282528
"49 FROST PL, Albany, NY, 12205","53.65-2-20",42.6842755,-73.79983825
"78 MAPLEWOOD AVE, Albany, NY, 12203","64.30-2-1",42.674655200000004,-73.82082285789764
"56 EDGEWOOD AVE, Albany, NY, 12203","64.34-1-26",42.6736723,-73.79908010296683
"6 LYRIC AVE, Albany, NY, 12205","53.73-1-48",42.6818279,-73.8002079075179
"389 MAGAZINE ST, Albany, NY, 12203","64.29-2-40",42.67415095,-73.82212587041982
"7 HIGHLAND AVE, Albany, NY, 12203","64.29-2-64",42.67366085,-73.8230198
"10 LYRIC AVE, Albany, NY, 12205","53.73-1-47",42.68190215,-73.80037366348725
"19 HIGHLAND AVE, Albany, NY, 12203","64.29-2-61",42.6738392,-73.82355889487727
"76 HAZELHURST AVE, Albany, NY, 12203","64.29-2-42",42.67407575,-73.82295439784316
"23 HIGHLAND AVE, Albany, NY, 12203","64.29-2-60",42.67389705,-73.823741
"84 HAZELHURST AVE, Albany, NY, 12203","64.29-2-44",42.67420905,-73.8233697
"72 HAZELHURST AVE, Albany, NY, 12203","64.29-2-41",42.6740099,-73.8227513914706
"15 HIGHLAND AVE, Albany, NY, 12203","64.29-2-62",42.6737923,-73.82337188812068
"229 HACKETT BLVD, Albany, NY, 12208","75.33-1-37",42.65130275,-73.79998638125
"17 S MANNING BLVD, Albany, NY, 12208","64.50-2-9.2",42.66710044444444,-73.79563055555556
"11 TWILLER ST, Albany, NY, 12209","76.69-4-42",42.637554949999995,-73.77784765
"403 ONTARIO ST, Albany, NY, 12208","64.84-3-20",42.65679535,-73.78642135
"407 ONTARIO ST, Albany, NY, 12208","64.84-3-21",42.65670905,-73.78650695000002
"255 HACKETT BLVD, Albany, NY, 12208","75.33-1-3",42.652362600000004,-73.80227199204776
"352 STATE ST, Albany, NY, 12210","65.80-3-55.-44",42.655789,-73.76460354028393
"45 GARDEN ST, Albany, NY, 12209","76.54-4-53",42.6417261,-73.7755899
"40 TREMONT ST, Albany, NY, 12205","53.65-2-37",42.6839778,-73.79936336358969
"63 KENOSHA ST, Albany, NY, 12209","76.77-1-51",42.6352137,-73.78133522787085
"1110 WESTERN AVE, Albany, NY, 12203","64.22-1-21.-5",42.6750295,-73.8194358
"3 BEEKMAN ST, Albany, NY, 12209","76.61-1-62",42.6403745,-73.78246039762772
"8 MATILDA ST, Albany, NY, 12209","75.68-1-4",42.64181935,-73.787739
"97 WELLINGTON AVE, Albany, NY, 12203","64.37-3-43",42.6702865,-73.82230969999999
"10 CLIFF ST, Albany, NY, 12208","64.73-2-21",42.659503799999996,-73.80033209999999
"10 FORDHAM CT, Albany, NY, 12209","75.49-2-21",42.6455486,-73.79974171040476
"200 MORTON AVE, Albany, NY, 12202","76.55-2-7",42.6440905,-73.7671898
"98 EDGEWOOD AVE, Albany, NY, 12203","64.26-2-50",42.67556235,-73.79708900734948
"151 THIRD ST, Albany, NY, 12210","65.65-5-35.-1511",42.66157175,-73.75660258770735
"155 THIRD ST, Albany, NY, 12210","65.65-5-35.-1552",42.66164175,-73.75672996000563
"141 THIRD ST, Albany, NY, 12210","65.65-5-35.-1411",42.661365599999996,-73.75624985
"502 SECOND AVE, Albany, NY, 12209","75.68-4-9",42.6398157,-73.78443625
"155 THIRD ST, Albany, NY, 12210","65.65-5-35.-1551",42.66164175,-73.75672996000563
"27 SLOAN ST, Albany, NY, 12202","76.64-5-7",42.6395907,-73.76435143972492
"12 S BERTHA ST, Albany, NY, 12209","76.69-4-22",42.63840535,-73.77827748182128
"68 OSBORNE ST, Albany, NY, 12202","76.56-4-9.-6801",42.6423686,-73.7645676
"68 OSBORNE ST, Albany, NY, 12202","76.56-4-9.-6802",42.6423686,-73.7645676
"70 OSBORNE ST, Albany, NY, 12202","76.56-4-9.-7002",42.6424211,-73.7646968
"72 OSBORNE ST - 72 OSBORNE, Albany, NY, 12202","76.56-4-9.-7201",42.64245955,-73.76485505
"75 THIRD ST, Albany, NY, 12210","65.74-2-14",42.66003785,-73.75395346417466
"74 OSBORNE ST - 74 OSBORNE, Albany, NY, 12202","76.56-4-9.-7402",42.64249905,-73.76501195
"46 O'CONNELL ST, Albany, NY, 12209","76.62-2-8",42.64088555,-73.77494485
"11 BONHEIM ST, Albany, NY, 12204","66.21-1-34",42.676239300000006,-73.73670441966891
"41 HURLBUT ST, Albany, NY, 12209","76.61-4-49",42.64085695,-73.77762975
"1112 WESTERN AVE, Albany, NY, 12203","64.22-1-21.-13",42.674966,-73.81970697733966
"1112 WESTERN AVE, Albany, NY, 12203","64.22-1-21.-14",42.674966,-73.81970697733966
"1112 WESTERN AVE, Albany, NY, 12203","64.22-1-21.-15",42.674966,-73.81970697733966
"1112 WESTERN AVE, Albany, NY, 12203","64.22-1-21.-16",42.674966,-73.81970697733966
"1112 WESTERN AVE, Albany, NY, 12203","64.22-1-21.-12",42.674966,-73.81970697733966
"63 GARDEN ST, Albany, NY, 12209","76.54-4-43",42.6417103,-73.77692162367346
"24 W LAWRENCE ST, Albany, NY, 12206","64.36-3-18",42.6724231,-73.78349538849027
"6 HELDERBERG AVE, Albany, NY, 12208","75.35-2-33",42.6507412,-73.79222204999999
"108 LOWELL ST, Albany, NY, 12205","53.56-2-6",42.688661100000004,-73.80723308184614
"72 HOMESTEAD ST, Albany, NY, 12203","64.29-1-19",42.673615999999996,-73.82568950713127
"620 PARK AVE, Albany, NY, 12208","64.84-2-8",42.6575548,-73.78355540000001
"70 KENOSHA ST, Albany, NY, 12209","76.77-1-70",42.6348447,-73.78132585601294
"641 DELAWARE AVE, Albany, NY, 12209","75.19-2-4",42.6355472,-73.79405023997462
"17 HAZELHURST AVE, Albany, NY, 12203","64.30-3-23",42.6727604,-73.81968315
"54 BEACH AVE, Albany, NY, 12203","64.45-3-22",42.6673476,-73.82317071225353
"31 SWARTSON CT, Albany, NY, 12209","75.58-1-5",42.6438658,-73.79853754999999
"24 ORLANDO AVE, Albany, NY, 12203","64.39-1-39",42.6713309,-73.8122387
"107 EDGECOMB ST, Albany, NY, 12209","75.67-1-9",42.6411988,-73.793205317163
"7 LYRIC AVE, Albany, NY, 12205","53.73-1-31",42.68205285,-73.7999836
"46 FROST PL, Albany, NY, 12205","53.65-2-10",42.68457155,-73.80007050585937
"18 SAWYER PL, Albany, NY, 12208","74.8-1-18",42.6526961,-73.8288523
"192 HOLLYWOOD AVE, Albany, NY, 12209","75.50-1-16",42.6473012,-73.79772249999999
"42 CLAYTON PL, Albany, NY, 12209","75.51-1-60",42.646300999999994,-73.79175980618407
"3 ASPEN CIR, Albany, NY, 12203","64.54-3-1",42.66356433303654,-73.8208627964588
"22 SPARKILL AVE, Albany, NY, 12209","75.76-1-39",42.63779565,-73.7857622
"30 LYRIC AVE, Albany, NY, 12205","53.73-1-40",42.68236245,-73.8010902543451
"4 KENT ST, Albany, NY, 12206","65.53-1-7",42.66619095,-73.77691825
"35 BOENAU ST, Albany, NY, 12202","76.63-3-5.1",42.64036125,-73.7680240664849
"1 PAR DR - 1 PAR  DR, Albany, NY, 12208","75.5-4-14",42.6522045,-73.8210872
"15 ORCHARD AVE, Albany, NY, 12203","64.29-1-41",42.6737852,-73.82637185078603
"404 ELK ST, Albany, NY, 12206","65.55-3-12",42.66460265,-73.77045461209468
"11 VIEW AVE, Albany, NY, 12209","76.54-3-42",42.6438002,-73.77251945
"562 DELAWARE AVE, Albany, NY, 12209","75.75-3-6",42.638066949999995,-73.78931478683495
"139 SHAKER RD, Albany, NY, 12211","65.7-3-4",42.67631625,-73.75490398289631
"133 N LAKE AVE, Albany, NY, 12206","65.55-2-27",42.66491445,-73.76957706695511
"28 ALBION AVE, Albany, NY, 12209","75.75-2-4",42.6391152,-73.7908342407314
"120 DAYTONA AVE, Albany, NY, 12203","64.47-1-51",42.66729235,-73.81523381213822
"501 MORRIS ST, Albany, NY, 12208","64.76-1-60",42.66010865,-73.78384306647662
"8 SLOAN ST, Albany, NY, 12202","76.64-4-55",42.63989785,-73.76325130000001
"58 O'CONNELL ST, Albany, NY, 12209","76.62-2-3",42.6413148,-73.7749811
"188 SYCAMORE ST, Albany, NY, 12209","75.42-1-51",42.64798005,-73.7984155708946
"30 LINDBERGH AVE, Albany, NY, 12204","65.28-1-6",42.67714135,-73.73808520951303
"10 CRESTWOOD CT, Albany, NY, 12208","75.32-1-42",42.65124775,-73.80648880000001
"41 TAMPA AVE, Albany, NY, 12203","64.40-2-21",42.6694354,-73.80938002222982
"50 MILLER AVE, Albany, NY, 12203","64.30-3-4",42.673906900000006,-73.82082600210009
"51 HAZELHURST AVE, Albany, NY, 12203","64.30-3-33",42.67363225,-73.82115473097198
"17 KAKELY ST, Albany, NY, 12208","64.72-3-4",42.660138950000004,-73.80678220693142
"250 MARION AVE, Albany, NY, 12208","64.65-1-76",42.661036749999994,-73.8041578138592
"27 PLEASANT VIEW AVE, Albany, NY, 12203","64.30-3-85",42.6726813,-73.82228269876046
"118 COTTAGE AVE, Albany, NY, 12203","64.37-2-7",42.67167565,-73.82269694394016
"10 REGENT ST, Albany, NY, 12202","76.71-1-13",42.6386624,-73.77008135
"131 ROSEMONT ST, Albany, NY, 12203","64.26-2-8",42.67646045,-73.79961019999999
"62 BEVERLY AVE, Albany, NY, 12206","65.48-2-88",42.66697295,-73.76034554150091
"206 MARION AVE, Albany, NY, 12208","64.65-1-51",42.66180815,-73.80336108564171
"3 DARTMOUTH ST, Albany, NY, 12209","75.67-1-63",42.6414336,-73.79104878735438
"351 WHITEHALL RD, Albany, NY, 12208","75.40-1-9",42.64965515,-73.80715998058254
"355 STATE ST, Albany, NY, 12210","65.80-3-28.-404",42.6562031,-73.764247
"329 LEEDALE ST, Albany, NY, 12209","76.69-4-63",42.63688945,-73.7781474066484
"14 ADIRONDACK ST, Albany, NY, 12203","64.38-1-17",42.6718063,-73.81680509079129
"10 MAXWELL ST, Albany, NY, 12208","75.23-1-47",42.65404805,-73.814173300335
"98 BRADFORD ST, Albany, NY, 12206","65.63-3-38",42.6623015,-73.77106270194093
"12 O'CONNELL ST, Albany, NY, 12209","76.62-2-20",42.63982405,-73.77478525
"319 QUAIL ST, Albany, NY, 12208","64.84-2-18",42.6567239,-73.78310411470336
"168 COTTAGE AVE, Albany, NY, 12203","64.29-3-27",42.67304575,-73.82506805
"3 GAGE AVE, Albany, NY, 12203","64.37-3-29",42.6699893,-73.82423006693858
"31 S DOVE ST, Albany, NY, 12202","76.63-1-7",42.6405439,-73.77093779823946
"463 MAGAZINE ST, Albany, NY, 12203","64.37-1-54",42.6715606,-73.82530349999999
"15 DALE ST, Albany, NY, 12203","64.37-1-55",42.67171175,-73.82555670711096
"28 BLANCHARD AVE, Albany, NY, 12203","64.37-1-37",42.671310399999996,-73.8269651
"25 WARREN AVE, Albany, NY, 12203","64.37-1-41",42.6710319,-73.82673234999999
"14 ELMHURST AVE, Albany, NY, 12203","64.37-2-56",42.67146205,-73.82440424758752
"10 ELMHURST AVE, Albany, NY, 12203","64.37-2-57",42.671380549999995,-73.8242534
"30 BLANCHARD AVE, Albany, NY, 12203","64.37-1-38",42.6711829,-73.8270387
"9 MARSDALE ST, Albany, NY, 12208","64.79-1-20",42.65750175,-73.81376255
"72 PINEWOOD AVE, Albany, NY, 12208","75.42-3-3",42.650257749999994,-73.79469594194978
"19 BUELL ST, Albany, NY, 12206","64.26-1-32",42.67718825,-73.79552814197493
"124 COTTAGE AVE, Albany, NY, 12203","64.37-2-69",42.67200675,-73.82327952088573
"42 EMMET ST, Albany, NY, 12204","65.52-1-48",42.6686454,-73.7428549
"36 HAMPTON ST, Albany, NY, 12209","76.69-1-28",42.637547049999995,-73.78258645
"2 BUELL ST, Albany, NY, 12206","64.26-1-18",42.6767068,-73.79667089938798
"45 SHERMAN ST, Albany, NY, 12210","65.72-4-6",42.658607599999996,-73.76413734853861
"65 SECOND AVE, Albany, NY, 12202","76.64-5-41",42.638707249999996,-73.76341738636714
"55 SOUTHERN BLVD, Albany, NY, 12209","75.76-3-42",42.6379644,-73.78430710341033
"14 BENSON ST, Albany, NY, 12206","65.54-2-38",42.6646447,-73.775657
"252 YATES ST, Albany, NY, 12208","65.77-1-20",42.657628900000006,-73.77874083739405
"14 ARCADIA AVE, Albany, NY, 12209","75.75-1-35",42.63947435,-73.78994308583785
"72 SPRING ST, Albany, NY, 12210","65.80-3-12",42.6567786,-73.76478980593589
"272 TAMPA AVE, Albany, NY, 12208","64.62-1-23",42.661515249999994,-73.81818287392846
"11 FORDHAM CT, Albany, NY, 12209","75.49-1-26",42.64591645,-73.79947418572192
"49 KEELER DR, Albany, NY, 12208","75.33-2-22",42.650902099999996,-73.80481735275349
"400 MAGAZINE ST, Albany, NY, 12203","64.29-2-76",42.6732561,-73.82252976615948
"56 CLERMONT ST, Albany, NY, 12203","64.33-1-53",42.673020300000005,-73.80244134152989
"N PEARL ST, Albany, NY, 12207","76.26-4-21",42.6522475,-73.7510457
"946 BROADWAY, Albany, NY, 12207","65.16-1-29",42.6627927,-73.7441949
"843 MADISON AVE, Albany, NY, 12203","65.69-2-63",42.66047896766878,-73.78190872060942
"50 TEN BROECK ST, Albany, NY, 12210","65.82-1-13",42.657619,-73.7510495
"13 DELAWARE AVE, Albany, NY, 12210","76.31-4-1",42.6519298,-73.7680293
"MADISON PL, Albany, NY, 12202","76.49-1-1",42.6469591,-73.7584606
"680 WARREN ST, Albany, NY, 12208","64.76-3-27",42.6591518,-73.7882597
"688 WARREN ST, Albany, NY, 12208","64.76-3-23",42.659413,-73.7886878
"674 WARREN ST, Albany, NY, 12208","64.76-3-29",42.6589464,-73.7879983
"686 WARREN ST, Albany, NY, 12208","64.76-3-24",42.6593488,-73.7885762
"682 WARREN ST, Albany, NY, 12208","64.76-3-26",42.659214,-73.7883927
"S SWAN ST, Albany, NY, 12210","76.24-6-30",42.653749,-73.7593863
"N ALLEN ST, Albany, NY, 12206","64.44-2-9",42.6724032,-73.7857605
"LIVINGSTON AVE, Albany, NY, 12207","65.82-5-7",42.6558991,-73.7453892
"CLINTON ST, Albany, NY, 12202","76.73-1-6",42.6394358,-73.7595718
"SPRING ST, Albany, NY, 12210","65.80-3-7",42.6562746,-73.7637491
"CENTRAL AVE, Albany, NY, 12206","65.37-3-11",42.6686391,-73.7769064
"BROAD ST, Albany, NY, 12202","76.73-1-52",42.639266,-73.7589184
"ROOSEVELT ST, Albany, NY, 12206","64.35-3-38",42.6735586,-73.7904004
"GRAND ST, Albany, NY, 12202","76.57-2-60",42.6447181,-73.7575509
"WILBUR ST, Albany, NY, 12202","76.49-5-36",42.645476,-73.758132
"LIVINGSTON AVE, Albany, NY, 12206","65.21-1-37",42.6708297,-73.7709395
"CLINTON AVE, Albany, NY, 12210","65.73-4-60",42.6540682,-73.7495501
"BUCHANAN ST, Albany, NY, 12206","64.44-2-2",42.6728411,-73.7867386
"BUCHANAN ST, Albany, NY, 12206","64.36-2-18",42.6728411,-73.7867386
"PARK AVE, Albany, NY, 12202","76.57-1-45",42.6457341,-73.7624082
"ELM ST, Albany, NY, 12202","76.49-2-82",42.646266,-73.758467
"BROAD ST, Albany, NY, 12202","76.73-1-23",42.639266,-73.7589184
"MYRTLE AVE, Albany, NY, 12202","76.57-1-14",42.645039,-73.759344
"WILBUR ST, Albany, NY, 12202","76.49-5-40",42.645476,-73.758132
"ASH GROVE PL, Albany, NY, 12202","76.49-3-57",42.6444033,-73.7565598
"ROBIN ST, Albany, NY, 12206","65.63-4-20",42.6623981,-73.768639
"NEW SCOTLAND AVE, Albany, NY, 12208","64.81-2-53",42.6570758,-73.8032063
"ALEXANDER ST, Albany, NY, 12202","76.64-2-18",42.64067,-73.761436
"MYRTLE AVE, Albany, NY, 12202","76.49-6-6",42.645039,-73.759344
"CHARLES ST, Albany, NY, 12202","76.49-6-46",42.6447056,-73.7596458
"CHARLES ST, Albany, NY, 12202","76.49-6-39",42.6447056,-73.7596458
"CHARLES ST, Albany, NY, 12202","76.49-6-26",42.6447056,-73.7596458
"46 EILEEN ST, Albany, NY, 12203","64.33-2-7",42.6722464,-73.80184984666089
"MYRTLE AVE, Albany, NY, 12202","76.49-6-20",42.645039,-73.759344
"MYRTLE AVE, Albany, NY, 12202","76.49-5-70",42.645039,-73.759344
"SHERIDAN AVE, Albany, NY, 12210","65.73-2-82",42.6544879,-73.7535616
"ORANGE ST, Albany, NY, 12210","65.73-2-92",42.6526207,-73.748036
"CHARLES ST, Albany, NY, 12202","76.57-1-28",42.6447056,-73.7596458
"CHARLES ST, Albany, NY, 12202","76.57-1-19",42.6447056,-73.7596458
"MYRTLE AVE, Albany, NY, 12202","76.57-1-1",42.645039,-73.759344
"PARK AVE, Albany, NY, 12202","76.49-6-77",42.6457341,-73.7624082
"N LAKE AVE, Albany, NY, 12203","65.62-2-49",42.668304,-73.765936
"FIRST ST, Albany, NY, 12210","65.65-3-51",42.663191,-73.763452
"225 HENRY JOHNSON BLVD, Albany, NY, 12210","65.57-2-59",42.6642935,-73.7583711
"WASHINGTON AVE, Albany, NY, 12207","76.25-2-14",42.6530667,-73.7568979
"525D RAPP RD - RAPP RD, Albany, NY, 12205","41.00-2-122",42.704236,-73.845859
"SOUTHERN BLVD, Albany, NY, 12202","87.05-3-7",42.634696,-73.7751538
"259 FULLER RD, Albany, NY, 12203","53.00-1-51",42.6889843,-73.8318298
"73 EAGLE ST, Albany, NY, 12207","76.11-1-5",42.6470672,-73.754124
"DELAWARE AVE, Albany, NY, 12202","76.39-1-16",42.6426129,-73.7780385
"HENRY JOHNSON BLVD, Albany, NY, 12210","65.65-3-63",42.6637602,-73.7585959
"LARK ST, Albany, NY, 12210","65.80-3-26",42.658342,-73.7616125
"TRINITY PL, Albany, NY, 12202","76.49-3-48",42.6444033,-73.7565598
"MYRTLE AVE, Albany, NY, 12202","76.39-3-1",42.645039,-73.759344
"DOVE ST, Albany, NY, 12210","65.73-2-60",42.658173,-73.758367
"LINDEN RD, Albany, NY, 12208","64.65-2-37",42.660762,-73.804091
"WOODLAWN AVE, Albany, NY, 12208","64.75-1-86",42.6627334,-73.8015625
"TRINITY PL, Albany, NY, 12202","76.49-4-32",42.6444033,-73.7565598
"FREEMAN RD, Albany, NY, 12208","64.73-1-16",42.6595216,-73.8036213
"190 RIDGEFIELD ST, Albany, NY, 12208","64.75-2-31",42.6585415,-73.7895161
"LIVINGSTON AVE, Albany, NY, 12210","65.74-1-36",42.6555151,-73.7450141
"FREEMAN RD, Albany, NY, 12208","64.73-1-45",42.6595216,-73.8036213
"LARK ST, Albany, NY, 12210","65.73-1-15",42.658342,-73.7616125
"FIRST ST, Albany, NY, 12206","65.55-1-1",42.663191,-73.763452
"147 FIRST AVE, Albany, NY, 12202","76.18-1-10",42.6358316,-73.7681579
"92 FIRST AVE, Albany, NY, 12202","76.79-1-5",42.6354054,-73.767468
"32 HOMESTEAD ST, Albany, NY, 12203","64.21-2-26",42.674947700000004,-73.82442995101098
"90 FIRST AVE, Albany, NY, 12202","76.79-1-6",42.6353841,-73.7673739
"39 RAYMO ST, Albany, NY, 12209","76.62-2-45",42.640692200000004,-73.77548262951264
"71 N SWAN ST, Albany, NY, 12210","65.82-1-50",42.65813,-73.754192
"THIRD ST, Albany, NY, 12206","65.29-1-13",42.673205,-73.777008
"65 FIRST AVE, Albany, NY, 12202","76.18-2-1",42.6359521,-73.7649203
"29 WALTER ST, Albany, NY, 12204","65.44-1-3",42.671688399999994,-73.73980663177515
"59 DONGAN AVE, Albany, NY, 12202","76.58-3-7",42.64269985,-73.75314467111744
"317 SHERIDAN AVE, Albany, NY, 12206","65.72-1-38",42.6607443,-73.7639605290999
"101 FIRST ST, Albany, NY, 12210","65.74-3-68",42.658505745347554,-73.75528877185877
"2 LARK ST, Albany, NY, 12210","65.15-2-11",42.664103299999994,-73.75411325277834
"59 LEXINGTON AVE, Albany, NY, 12206","65.64-2-37",42.6617537,-73.76531055
"513 CLINTON AVE, Albany, NY, 12206","65.55-5-44",42.664623500000005,-73.7673414410144
"19 TREMONT ST, Albany, NY, 12205","53.66-2-10",42.6844398,-73.7979421
"411 WASHINGTON AVE, Albany, NY, 12206","65.62-1-66",42.6614641,-73.7709464
"404 PARTRIDGE ST, Albany, NY, 12208","64.83-2-41",42.656415949999996,-73.79069730215915
"57 HURLBUT ST, Albany, NY, 12209","76.54-4-39",42.641616049999996,-73.77773659980224
"279 WHITEHALL RD, Albany, NY, 12209","75.41-3-28",42.6474321,-73.80088130381304
"118 QUAIL ST, Albany, NY, 12206","65.54-4-1",42.664708000000005,-73.77389239003364
"57 SECOND ST, Albany, NY, 12210","65.74-3-25",42.6590608,-73.75397534999999
"22 TEN EYCK AVE, Albany, NY, 12209","75.68-1-21",42.6414576,-73.7858526
"381 SHERIDAN AVE, Albany, NY, 12206","65.63-1-35",42.6618967,-73.7661639
"420 WHITEHALL RD, Albany, NY, 12209","75.6-1-4",42.652162625,-73.81366475
"2 PINE ST, Albany, NY, 12207","76.34-2-38",42.6517336,-73.7540614
"3 PINE ST, Albany, NY, 12207","76.34-2-37",42.6517059,-73.7539979
"CENTRAL AVE, Albany, NY, 12210","65.80-2-28",42.6573573,-73.7641437
"362 STATE ST, Albany, NY, 12210","65.80-3-51",42.6559972,-73.765033
"413 WASHINGTON AVE, Albany, NY, 12206","65.62-1-67",42.6616473,-73.7712325
"453 YATES ST, Albany, NY, 12208","65.69-2-81",42.6594933,-73.7811916
"107 WHITEHALL RD, Albany, NY, 12209","75.59-3-49",42.64248535,-73.7894969406694
"30 N FERRY ST, Albany, NY, 12207","65.20-1-17",42.6594931,-73.7436356
"3 OAK ST, Albany, NY, 12206","65.64-7-16",42.6632112,-73.7609246
"COLONIE ST, Albany, NY, 12207","65.20-3-16",42.6561353,-73.743827
"42 COLONIE ST, Albany, NY, 12207","65.20-3-18.1",42.6570322,-73.7456606
"211 CHURCH ST, Albany, NY, 12202","76.19-2-1",42.637858,-73.7546371
"225 CHURCH ST, Albany, NY, 12202","76.19-2-2",42.6373508,-73.7549979
"25 LIVINGSTON AVE, Albany, NY, 12207","65.20-2-30",42.6562173,-73.745712
"11 LIVINGSTON AVE, Albany, NY, 12207","65.20-2-31",42.6559374,-73.744827
"113 WATER ST, Albany, NY, 12207","65.20-4-1",42.656013130400446,-73.74404450828834
"PORT RD, Albany, NY, 12202","87.14-2-10",42.621152,-73.765521
"49 LIVINGSTON AVE, Albany, NY, 12207","65.20-3-21.1",42.6575525,-73.7469602
"79 MILL ST, Albany, NY, 12204","65.16-4-34",42.6670697,-73.7382057
"13 ANDERSON DR, Albany, NY, 12205","65.6-1-8.1",42.68288559345983,-73.77800203327327
"17 FRANKLIN ST, Albany, NY, 12202","76.50-3-58",42.6443898,-73.754275
"21 FRANKLIN ST, Albany, NY, 12202","76.50-3-56",42.6442756,-73.7543322
"19 FRANKLIN ST, Albany, NY, 12202","76.50-3-57",42.6443384,-73.7543096
"241 SHERIDAN AVE, Albany, NY, 12210","65.73-2-78",42.6586563,-73.7602616
"76 HERKIMER ST, Albany, NY, 12202","76.50-3-35",42.6444374,-73.7540972
"678 WARREN ST, Albany, NY, 12208","64.76-3-28",42.6591054,-73.7881264
"1 ROOSEVELT ST, Albany, NY, 12206","64.35-3-29",42.6732117,-73.7910375
"86 FIRST AVE, Albany, NY, 12202","76.79-1-8",42.6354429,-73.7671807
"88 FIRST AVE, Albany, NY, 12202","76.79-1-7",42.6353898,-73.7672762
"96 FIRST AVE, Albany, NY, 12202","76.79-1-3",42.6354119,-73.7676508
"94 FIRST AVE, Albany, NY, 12202","76.79-1-4",42.635404,-73.7675473
"WARREN ST, Albany, NY, 12202","76.10-2-1",42.6436511,-73.7604903
"98 FIRST AVE, Albany, NY, 12202","76.79-1-2",42.6354128,-73.7677332
"63 BENJAMIN ST, Albany, NY, 12202","76.72-5-8",42.6362511,-73.7642558
"61 BENJAMIN ST, Albany, NY, 12202","76.72-5-9",42.6362768,-73.7641333
"57 BENJAMIN ST, Albany, NY, 12202","76.72-5-11",42.636395,-73.7640334
"7 MORTON AVE, Albany, NY, 12202","76.57-4-26",42.6425324,-73.75860086956826
"1036 MADISON AVE, Albany, NY, 12208","64.59-2-23",42.66452495,-73.78963736992272
"13 TRINITY PL, Albany, NY, 12202","76.49-3-42",42.64557135,-73.75614391520406
"CHURCH ST, Albany, NY, 12202","76.19-4-1",42.63648,-73.7553688
"132 WHITEHALL RD, Albany, NY, 12209","75.67-2-2",42.6402604,-73.7912275
"105 STATE ST, Albany, NY, 12207","76.34-2-49",42.6509499,-73.7543074
"397 NEW SCOTLAND AVE, Albany, NY, 12208","75.27-1-14",42.6543088,-73.7937768
"75 WHITEHALL RD, Albany, NY, 12209","75.68-1-39",42.64149725,-73.7873429465003
"494 CLINTON AVE, Albany, NY, 12206","65.55-4-20",42.66378055,-73.76761608864541
"168 S ALLEN ST, Albany, NY, 12208","64.66-1-45",42.661399599999996,-73.79802156362373
"93 PARK AVE, Albany, NY, 12202","76.10-1-6",42.646125,-73.76223839694018
"86 LEXINGTON AVE, Albany, NY, 12210","65.72-3-1",42.660772,-73.766313
"124 CHESTNUT ST, Albany, NY, 12210","76.24-2-33",42.654171149999996,-73.76322627450364
"381 HAMILTON ST, Albany, NY, 12210","76.24-5-52",42.652796800000004,-73.76571807162208
"68 YARDBORO AVE, Albany, NY, 12205","53.57-1-6",42.688526,-73.80288112191053
"38 TEN BROECK ST, Albany, NY, 12210","65.82-1-14",42.65695445,-73.7514541937806
"320 NEW SCOTLAND AVE, Albany, NY, 12208","75.35-3-1",42.65290335,-73.78945022853318
"KRUMKILL RD, Albany, NY, 12159","63.76-1-4",42.666598,-73.867752
"N PEARL ST, Albany, NY, 12207","76.34-1-2",42.6522475,-73.7510457
"W LAWRENCE ST, Albany, NY, 12206","64.44-2-35",42.6732099,-73.7824055
"32 HOFFMAN AVE, Albany, NY, 12209","76.69-4-38",42.637679750000004,-73.7774574
"ELBERON PL, Albany, NY, 12203","65.70-1-85",42.660758,-73.776927
"WOODLAWN AVE, Albany, NY, 12208","64.65-2-19",42.6627334,-73.8015625
"GREENWAY, Albany, NY, 12208","64.81-2-49",42.6582729,-73.8039963
"SCHUYLER ST, Albany, NY, 12202","76.65-4-13",42.6409833,-73.7574821
"PHILIP ST, Albany, NY, 12207","76.49-2-29",42.6475595,-73.7573391
"CHARLES ST, Albany, NY, 12202","76.57-1-37",42.6447056,-73.7596458
"DANA AVE, Albany, NY, 12208","76.23-1-53",42.6541056,-73.7722346
"SHERIDAN AVE, Albany, NY, 12210","65.72-5-30",42.6544879,-73.7535616
"BROAD ST, Albany, NY, 12202","76.73-4-23",42.639266,-73.7589184
"LIVINGSTON AVE, Albany, NY, 12207","65.82-5-1",42.6558991,-73.7453892
"65 GREEN ST, Albany, NY, 12207","76.50-1-10",42.6466117,-73.7528095
"67 HAMILTON ST, Albany, NY, 12207","76.50-1-13",42.6465542,-73.7529083
"560 BROADWAY, Albany, NY, 12207","76.34-3-12",42.651676,-73.7500092
"496 BROADWAY, Albany, NY, 12207","76.34-3-21",42.6503508,-73.750911
"59 BENJAMIN ST, Albany, NY, 12202","76.72-5-10",42.6363234,-73.7640714
"684 WARREN ST, Albany, NY, 12208","64.76-3-25",42.6592645,-73.7884832
"80 HERKIMER ST, Albany, NY, 12202","76.50-3-34",42.6445039,-73.7542118
"NORTHERN BLVD, Albany, NY, 12204","65.11-2-32",42.677125,-73.7437422
"42 LAWRENCE ST, Albany, NY, 12207","65.20-3-3",42.77716145454546,-73.75292936363635
"4 TEN BROECK ST, Albany, NY, 12210","65.82-4-30",42.6553909,-73.75153521033495
"65 MORTON AVE, Albany, NY, 12202","76.10-3-1",42.6436191,-73.7616856
"820 MADISON AVE, Albany, NY, 12208","65.69-2-69",42.6598515,-73.7810015
"21 KING AVE, Albany, NY, 12206","64.36-1-15",42.674592,-73.78621501902748
"5 SAMARITAN RD, Albany, NY, 12208","76.9-1-4.1",42.6469957,-73.778209
"96 SECOND ST, Albany, NY, 12210","65.73-5-29",42.659431600000005,-73.7556423592514
"138 SECOND ST, Albany, NY, 12210","65.73-5-10",42.66036885,-73.75733536842999
"233 THIRD ST, Albany, NY, 12206","65.56-5-28",42.663676949999996,-73.76040520313431
"95 FOURTH AVE, Albany, NY, 12202","76.65-4-45",42.63901366666667,-73.75758233333333
"419 CLINTON AVE, Albany, NY, 12206","65.64-1-23",42.66281385,-73.76418115119283
"727 MADISON AVE, Albany, NY, 12203","65.69-1-61",42.658231,-73.777649
"39 S FERRY ST, Albany, NY, 12202","76.58-3-5",42.6424792,-73.75349160697775
"153 JAY ST, Albany, NY, 12210","76.24-6-82",42.65281545,-73.76282993134852
"14 BENJAMIN ST, Albany, NY, 12202","76.72-2-22",42.6374104,-73.76213394999999
"498 CLINTON AVE, Albany, NY, 12206","65.55-4-19",42.6639139,-73.7676188
"29 N MAIN AVE, Albany, NY, 12203","64.52-2-48",42.66641615,-73.78740162100777
"82 CLINTON ST, Albany, NY, 12202","76.65-2-53",42.639748600000004,-73.75915265000002
"3 MORTON AVE, Albany, NY, 12202","76.57-4-25",42.64231055,-73.75842978759277
"281A WASHINGTON AVE - WASHINGTON AVE, Albany, NY, 12206","65.71-3-35",42.6585934,-73.7662237933297
"191 HOLLYWOOD AVE, Albany, NY, 12209","75.42-1-60",42.647571049999996,-73.7981313622851
"647 WESTERN AVE, Albany, NY, 12203","64.50-1-52",42.668978949999996,-73.79862340000001
"76 CLINTON ST, Albany, NY, 12202","76.65-2-52",42.63987535,-73.75910371922569
"1020 MADISON AVE, Albany, NY, 12208","64.59-4-3",42.664094500000004,-73.78877349908294
"27 N MAIN AVE, Albany, NY, 12203","64.52-2-49",42.6663264,-73.78750539999203
"357 LIVINGSTON AVE, Albany, NY, 12206","65.57-1-20",42.665289599999994,-73.7608995
"231 SHERMAN ST, Albany, NY, 12206","65.63-2-32",42.6634355,-73.76956414779163
"463 NEW SCOTLAND AVE, Albany, NY, 12208","75.26-2-5",42.655096400000005,-73.79659187251056
"82 FOREST AVE, Albany, NY, 12208","75.43-2-73",42.649111250000004,-73.7893899
"86 SCHUYLER ST, Albany, NY, 12202","76.65-4-14",42.6406397,-73.7570333
"12 ROSEMONT ST, Albany, NY, 12203","64.40-3-2",42.67169855,-73.8054003
"270 S MANNING BLVD, Albany, NY, 12208","64.73-1-40",42.659254700000005,-73.80340998488109
"92 HERKIMER ST, Albany, NY, 12202","76.50-2-31",42.644609,-73.7544071
"790 LANCASTER ST, Albany, NY, 12203","64.52-2-28",42.6669834,-73.78678515233756
"56 N PINE AVE, Albany, NY, 12203","64.51-1-14",42.668832300000005,-73.79218042109468
"267 S MAIN AVE, Albany, NY, 12208","75.25-1-22",42.65467395,-73.80018617389868
"426 WHITEHALL RD, Albany, NY, 12209","75.06-1-3.1",42.652448375,-73.81398725
"93 FOURTH AVE, Albany, NY, 12202","76.65-4-46",42.639005,-73.7575515
"40 COLLINS PL, Albany, NY, 12208","64.79-1-9",42.657589,-73.8149094
"269 SPRUCE ST, Albany, NY, 12210","65.72-5-72",42.6593626,-73.76300633878432
"35 WALTER ST, Albany, NY, 12204","65.44-1-2",42.67199035,-73.73968745027247
"562 CLINTON AVE, Albany, NY, 12206","65.55-2-20",42.6654755,-73.7699271699758
"258 ORANGE ST, Albany, NY, 12210","65.73-2-53",42.6583313,-73.7589412
"10 LODGE ST, Albany, NY, 12207","76.34-2-24",42.6520216,-73.75277055514925
"320 SHERIDAN AVE, Albany, NY, 12206","65.72-2-28",42.6600781,-73.763693
"441 WASHINGTON AVE, Albany, NY, 12206","65.62-1-75",42.662176599999995,-73.77198071305145
"159 QUAIL ST, Albany, NY, 12203","65.62-3-9",42.663293,-73.77626420633511
"453 DELAWARE AVE, Albany, NY, 12209","75.68-2-1",42.6406143,-73.7838198
"140 WESTERN AVE, Albany, NY, 12203","65.17-2-8",42.660649,-73.7742934
"40 LARK ST, Albany, NY, 12210","65.65-5-34",42.66181925,-73.75684264924556
"355 S PEARL ST, Albany, NY, 12202","76.65-3-45",42.63994635,-73.75806840289357
"774 MADISON AVE, Albany, NY, 12208","65.69-1-72",42.6590875,-73.7799857
"125 EAGLE ST, Albany, NY, 12202","76.49-1-25",42.6476683,-73.75992887999732
"120 COTTAGE AVE, Albany, NY, 12203","64.37-2-71",42.6718231,-73.82293933595264
"146 CATHERINE ST, Albany, NY, 12202","76.56-1-32.2",42.6428959,-73.76517332363633
"27 DELAWARE ST, Albany, NY, 12202","76.65-1-34",42.6409483,-73.7601681
"1 ST GEORGE PL, Albany, NY, 12202","76.14-2-1.1",42.7612292,-73.8796896
"369 LIVINGSTON AVE, Albany, NY, 12206","65.56-1-5",42.66574075,-73.7616243
"4 COLBY ST, Albany, NY, 12206","65.21-3-23",42.67446215,-73.78153923450031
"58 ALEXANDER ST, Albany, NY, 12202","76.64-2-37",42.64033805,-73.76105031165383
"99 STATE ST, Albany, NY, 12207","76.34-2-50",42.65095735,-73.75403836740848
"14 LODGE ST, Albany, NY, 12207","76.34-2-23",42.65184995,-73.7527655517099
"465 STATE ST, Albany, NY, 12203","65.71-2-35",42.6585581,-73.7684749
"16 HOMESTEAD ST, Albany, NY, 12203","64.21-2-37",42.675929350000004,-73.82407866943925
"585 CENTRAL AVE, Albany, NY, 12206","65.29-2-21",42.67244595,-73.7805825374322
"502 SMITH BLVD, Albany, NY, 12202","87.11-1-3",42.62255557429719,-73.76348883534136
"475 STATE ST, Albany, NY, 12203","65.71-2-31",42.6587658,-73.7689327
"279 CENTRAL AVE, Albany, NY, 12206","65.54-5-43",42.6641117,-73.7713331
"121 JAY ST, Albany, NY, 12210","76.32-1-10",42.65275503056589,-73.76292105605289
"160 CENTRAL AVE, Albany, NY, 12206","65.63-4-7",42.661047100000005,-73.76873953268657
"23 HACKETT BLVD, Albany, NY, 12208","76.9-2-4",42.64620775,-73.77766107229021
"801 WESTERN AVE, Albany, NY, 12203","64.40-3-1",42.671435450000004,-73.80602235595902
"32 LEXINGTON AVE, Albany, NY, 12206","65.64-4-71",42.6627354,-73.7637679
"275 STATE ST, Albany, NY, 12210","76.24-7-25",42.65432980585089,-73.76143171606307
"60 ELK ST, Albany, NY, 12210","76.25-2-17",42.65464935,-73.7577832035684
"215 LANCASTER ST, Albany, NY, 12210","65.80-3-63",42.6551657,-73.7653681
"440 WHITEHALL RD, Albany, NY, 12209","75.6-1-2",42.6531637,-73.81507043333333
"120 EAGLE ST, Albany, NY, 12202","76.10-1-9",42.6476929,-73.7599091
"340 WHITEHALL RD, Albany, NY, 12209","75.10-1-1.1",42.64967998135885,-73.80804394407656
"40 HOPEWELL ST, Albany, NY, 12208","64.79-2-26",42.6564572,-73.81309623914555
"700 NEW SCOTLAND AVE, Albany, NY, 12208","64.80-1-1",42.65769465,-73.80656156364773
"609 CENTRAL AVE, Albany, NY, 12206","65.29-2-13",42.6735386,-73.7820373
"718 THIRD ST, Albany, NY, 12206","65.21-2-37",42.6755797,-73.78047211327774
"135 ONTARIO ST, Albany, NY, 12206","65.46-2-9.1",42.66681465,-73.77627523747472
"314 CENTRAL AVE, Albany, NY, 12206","65.54-1-34",42.664966050000004,-73.77320598869915
"15 TRINITY PL, Albany, NY, 12202","76.49-3-43",42.6454416,-73.75631760079091
"8 HOLLYWOOD AVE, Albany, NY, 12208","75.27-1-38",42.6536458,-73.79390528787837
"193 CENTRAL AVE, Albany, NY, 12206","65.63-5-60",42.662088600000004,-73.76879146078355
"10 WILLETT ST, Albany, NY, 12210","65.80-3-77",42.6562014,-73.7653859
"105 SECOND ST, Albany, NY, 12210","65.73-6-21",42.660017249999996,-73.7553949321522
"634 NEW SCOTLAND AVE, Albany, NY, 12208","64.80-1-29.2",42.65787445,-73.80668334789763
"310 S MANNING BLVD, Albany, NY, 12208","64.80-1-31",42.6561915,-73.8058587
"110 N PEARL ST, Albany, NY, 12210","76.26-4-20",42.65273869166666,-73.75063225000001
"600 NEW SCOTLAND AVE, Albany, NY, 12208","75.25-1-3.1",42.6557447,-73.80172143109024
"460 CLINTON AVE, Albany, NY, 12206","65.63-1-73",42.66315815,-73.7663856859705
"6 ELM ST, Albany, NY, 12202","76.49-5-20",42.64571545,-73.75737763133577
"12 ELK ST, Albany, NY, 12207","76.25-2-13",42.65303725,-73.75497605098249
"8 ELM ST, Albany, NY, 12202","76.49-5-19",42.6456768,-73.75755529878761
"410 SHERIDAN AVE, Albany, NY, 12206","65.63-5-12",42.661621249999996,-73.76656621338483
"257 S PEARL ST, Albany, NY, 12202","76.57-2-30",42.64268,-73.7565517
"222 N PEARL ST, Albany, NY, 12207","65.82-5-23",42.65732905,-73.74978513411233
"204 SECOND ST, Albany, NY, 12210","65.65-3-7",42.6619005,-73.7598433
"163 CLINTON AVE, Albany, NY, 12210","65.81-1-22",42.6577163,-73.7555799
"35 S FERRY ST, Albany, NY, 12202","76.58-3-6",42.6424966,-73.75313942543411
"274 WASHINGTON AVE, Albany, NY, 12203","65.79-1-17",42.6580417,-73.7663072
"SECOND AVE, Albany, NY, 12202","76.72-3-7",42.639228,-73.772396
"SECOND AVE, Albany, NY, 12202","76.72-3-10",42.639228,-73.772396
"S SWAN ST, Albany, NY, 12210","76.32-2-35",42.653749,-73.7593863
"HUDSON AVE, Albany, NY, 12210","76.32-2-22",42.652632,-73.7642188
"CLINTON ST, Albany, NY, 12202","76.72-2-67",42.6394358,-73.7595718
"48 BROADWAY, Albany, NY, 12202","76.19-2-8",42.63860135,-73.75341128685123
"75 WATERVLIET AVE, Albany, NY, 12206","54.77-2-3.1",42.677482749999996,-73.78069709619078
"61 SHAKER RD, Albany, NY, 12204","65.08-1-1.2",42.673460199999994,-73.74773541174915
"315 SHERIDAN AVE, Albany, NY, 12206","65.72-1-37",42.66063585,-73.76369298495106
"441 WESTERN AVE, Albany, NY, 12203","64.60-1-16",42.66538385,-73.78725391671315
"400 SMITH BLVD, Albany, NY, 12202","87.15-1-2",42.620231450000006,-73.76012675118578
"75 PARK AVE, Albany, NY, 12202","76.10-1-5",42.64575335000001,-73.76179105029095
"28 CORPORATE CIR, Albany, NY","41.00-2-58",42.7038548,-73.8740816
"890-900 MADISON AVE - MADISON AVE, Albany, NY, 12208","64.68-2-26",42.6587613,-73.7787416
"400 NORTHERN BLVD, Albany, NY, 12204","65.11-2-1",42.671945004507094,-73.75213731381554
"42 S DOVE ST, Albany, NY, 12202","76.14-2-1.2",42.6415924,-73.77031486765674
"250 CENTRAL AVE, Albany, NY, 12206","65.63-3-1",42.6632992,-73.7710964
"99 SLINGERLAND ST, Albany, NY, 12202","76.14-1-1",42.642737249999996,-73.77080908951396
"54 SECOND ST, Albany, NY, 12210","65.82-1-48",42.658820895718996,-73.75426150063667
"46 SECOND ST, Albany, NY, 12210","65.82-1-44",42.6582914,-73.7536041
"16 EAGLE ST, Albany, NY, 12207","76.34-2-27",42.652582249999995,-73.7534414449444
"20 EAGLE ST, Albany, NY, 12207","76.34-2-28",42.65224845,-73.75384264400223
"71 TERMINAL ST, Albany, NY, 12206","65.6-1-3",42.67410985,-73.77092069587495
"747 BROADWAY, Albany, NY, 12207","65.83-1-27",42.6566988,-73.74802499844827
"17 LODGE ST, Albany, NY, 12207","76.34-2-31",42.6516014,-73.7534906
"517 WESTERN AVE, Albany, NY, 12203","64.51-2-2",42.66669245,-73.79091452026712
"1 LODGE ST, Albany, NY, 12207","76.34-2-26",42.6524615,-73.75235587477707
"450 CENTRAL AVE, Albany, NY, 12206","65.45-1-7",42.6684627,-73.77741010622229
"23 EAGLE ST, Albany, NY, 12207","76.34-2-39",42.6517578,-73.7544238
"328 BROADWAY, Albany, NY, 12207","76.50-1-36",42.646433,-73.7504618
"286 WASHINGTON AVE, Albany, NY, 12203","65.79-1-16",42.6582516,-73.7665654
"1200 WASHINGTON AVE, Albany, NY, 12203","53.00-1-2",42.680135038461536,-73.80392796153846
"86 S SWAN ST, Albany, NY, 12210","76.25-2-29",42.6540184,-73.7598353
"89 WASHINGTON AVE, Albany, NY, 12210","76.25-2-16",42.653962,-73.75747231312863
"EAGLE ST, Albany, NY, 12207","76.7-1-1",42.6526851,-73.7539319
"515 BROADWAY, Albany, NY, 12207","76.34-3-50.-1",42.6505843,-73.7500776
"445 BROADWAY, Albany, NY, 12207","76.11-2-1",42.649608799999996,-73.75002946414955
"10 N HAWK ST, Albany, NY, 12210","76.25-2-15",42.65386065,-73.75649342760295
"6 LODGE ST, Albany, NY, 12207","76.34-2-25",42.6521585,-73.752329
"56 N LARK ST, Albany, NY, 12210","65.65-4-1",42.658342,-73.7616125
"65 KRANK ST, Albany, NY, 12202","76.18-1-1",42.6370074,-73.76562330224536
"127 ORANGE ST, Albany, NY, 12210","65.82-3-39",42.6556742,-73.7537112
"370 CENTRAL AVE, Albany, NY, 12206","65.54-1-17",42.66644785,-73.7748699858482
"75 S DOVE ST, Albany, NY, 12202","76.63-1-1",42.641510049999994,-73.77110076976373
"700 WASHINGTON AVE, Albany, NY, 12203","64.52-2-53",42.66648375,-73.78304165375782
"135 ACADEMY RD, Albany, NY, 12208","75.12-1-1.1",42.646032,-73.7872561
"17 KELTON CT, Albany, NY, 12209","75.58-2-20.11",42.643588,-73.796068
"1061 NEW SCOTLAND RD, Albany, NY, 12208","74.8-1-3",42.6497571,-73.8353793
"1 ARBOR DR, Albany, NY, 12210","65.15-2-10",42.66139,-73.749092
"141 WESTERN AVE, Albany, NY, 12203","65.17-1-1",42.66141295,-73.77299693026295
"321 NORTHERN BLVD, Albany, NY, 12210","65.11-1-4",42.6697772,-73.75639990072231
"75 DELAWARE AVE, Albany, NY, 12202","76.9-2-21",42.6498696,-73.7696925
"296 S PEARL ST, Albany, NY, 12202","76.15-1-11.1",42.64111125,-73.75581251368715
"110 COMMERCE AVE, Albany, NY, 12206","65.5-1-2.2",42.6762724,-73.7739864
"43 BERTHA ST, Albany, NY, 12209","76.61-3-11",42.6414398,-73.7786776
"39 SECOND ST, Albany, NY, 12210","65.74-4-61",42.65833236636239,-73.75308046487629
"547 DELAWARE AVE, Albany, NY, 12209","75.75-1-9",42.63892825,-73.7884303023949
"16 ST JAMES PL, Albany, NY, 12209","76.53-2-58",42.64239565,-73.78116033689355
"35 N FIRST ST, Albany, NY, 12204","65.12-1-4",42.670635653061225,-73.74051551020408
"120 VAN RENSSELAER BLVD, Albany, NY, 12204","54.20-4-1",42.678478150000004,-73.74531778287214
"110 WASHINGTON AVE, Albany, NY, 12210","76.25-2-28",42.65426855,-73.76001805280562
"21 DELAWARE AVE, Albany, NY, 12210","76.31-4-2",42.651397450000005,-73.76852941867237
"25 DELAWARE AVE, Albany, NY, 12208","76.31-4-3",42.650878,-73.76847
"375 ONTARIO ST, Albany, NY, 12208","64.84-2-49",42.65757715,-73.78599704727672
"141 WASHINGTON AVE, Albany, NY, 12210","65.80-4-33.1",42.6559552,-73.76098455561558
"29 S ALLEN ST, Albany, NY, 12208","64.59-1-49",42.6652374,-73.7925374
"725 MADISON AVE, Albany, NY, 12203","65.69-1-60",42.65812,-73.777459
"68 GRAND ST, Albany, NY, 12202","76.49-3-81",42.6459655,-73.75627216719332
"91 QUAIL ST, Albany, NY, 12206","65.46-3-57",42.66632835,-73.77249810875225
"150 WASHINGTON AVE, Albany, NY, 12210","76.24-7-2",42.6552224,-73.76110749436648
"728 MADISON AVE, Albany, NY, 12208","65.77-1-4",42.6581056,-73.77839016225431
"100 FIRST AVE, Albany, NY, 12202","76.79-1-1",42.6354092,-73.7678216
"277 FIRST AVE, Albany, NY, 12209","76.17-1-4",42.70876622448979,-73.70822595918368
"73 FIRST ST, Albany, NY, 12210","65.82-1-58",42.6578737,-73.7539113
"296 MYRTLE AVE, Albany, NY, 12202","76.9-2-20",42.65009442857143,-73.76854921428571
"65 WARREN ST, Albany, NY, 12202","76.9-2-19",42.6501037,-73.7709474
"164 DELAWARE AVE, Albany, NY, 12202","76.10-1-3",42.6463235,-73.76438406618155
"14 ROSEMARY DR, Albany, NY, 12211","65.7-1-1",42.6773497,-73.7607078
"51 S PEARL ST, Albany, NY, 12207","76.11-1-14.1",42.6482495,-73.7548157
"195 WASHINGTON AVE, Albany, NY, 12210","65.80-4-27",42.6570632,-73.7624193
"195 KARNER RD, Albany, NY, 12205","41.00-2-124",42.7187291,-73.8649116
"41 N FIRST ST, Albany, NY, 12204","65.36-1-24",42.67064759183674,-73.74054930612245
"61 N FIRST ST, Albany, NY, 12204","65.12-1-3",42.6709375,-73.7429143
"63 THIRD ST, Albany, NY, 12210","65.74-2-19",42.659747,-73.7535079
"775 CLINTON AVE, Albany, NY, 12206","65.38-2-77",42.67049455,-73.7763696316645
"809 CLINTON AVE, Albany, NY, 12206","65.37-2-40",42.67111065,-73.77667244193668
"389 PARTRIDGE ST, Albany, NY, 12208","64.83-4-1",42.6573353,-73.78859885
"27 HOFFMAN AVE, Albany, NY, 12209","76.17-1-3",42.6383268,-73.7757807
"249 WOODLAWN AVE, Albany, NY, 12208","64.83-3-1",42.6572065,-73.78983262675214
"19 SUNSET AVE, Albany, NY, 12203","64.31-1-11",42.6726304,-73.8155633
"484 LIVINGSTON AVE, Albany, NY, 12206","65.47-5-11",42.6680532,-73.7669445
"5 BROADWAY, Albany, NY, 12202","76.19-2-11.1",42.637309,-73.753218
"358 BROADWAY, Albany, NY, 12207","76.42-5-44",42.64713886734694,-73.75000497959184
"15 ERIE BLVD, Albany, NY, 12204","65.16-5-6",42.660649649999996,-73.73948874297548
"S PEARL ST, Albany, NY, 12202","87.9-3-1",42.638004,-73.758952
"65 O'NEIL RD, Albany, NY, 12208","75.00-2-1",42.6512763,-73.8210445
"239 SECOND AVE, Albany, NY, 12209","76.62-3-32",42.63928909090909,-73.77269827272727
"131 FIRST AVE, Albany, NY, 12202","76.18-1-9",42.635630933237735,-73.76653316983065
"27 LOCUST ST, Albany, NY, 12203","64.30-2-10",42.673744150000005,-73.8191693341805
"339 CENTRAL AVE, Albany, NY, 12206","65.54-1-5",42.665843800000005,-73.77316629759298
"93 N PEARL ST, Albany, NY, 12207","76.34-1-1",42.6528868,-73.7505222
"63 AUSTAIN AVE, Albany, NY, 12206","53.74-2-11",42.683260168388536,-73.7979564234051
"316 PARTRIDGE ST, Albany, NY, 12208","64.76-3-22",42.6596081,-73.78694678536664
"1125 BROADWAY, Albany, NY, 12204","65.12-4-1",42.6695629,-73.7395221
"632 NEW SCOTLAND AVE, Albany, NY, 12208","75.25-1-1",42.6558982,-73.804937
"47 NEW SCOTLAND AVE, Albany, NY, 12208","76.05-1-3.1",42.651368,-73.778422
"113 HOLLAND AVE, Albany, NY, 12202","76.05-1-14.1",42.648692734693874,-73.7737061020408
"43 NEW SCOTLAND AVE, Albany, NY, 12208","76.5-1-4",42.653810500000006,-73.77695851652038
"600 NORTHERN BLVD, Albany, NY, 12204","65.08-1-1.1",42.6736875,-73.74859022363307
"25 HACKETT BLVD, Albany, NY, 12208","76.9-1-5.1",42.6464311,-73.779755
"470 MYRTLE AVE, Albany, NY, 12208","76.05-1-3.2",42.65600842857143,-73.77880528571428
"19 CLINTON AVE, Albany, NY, 12207","76.26-4-13",42.6550433,-73.7503596
"676 CLINTON AVE, Albany, NY, 12206","65.46-1-13",42.668276750000004,-73.77492199506204
"354 WESTERN AVE, Albany, NY, 12203","64.68-1-9",42.6635832931648,-73.78295249435456
"358 WESTERN AVE, Albany, NY, 12203","64.68-1-8",42.66361619126903,-73.7830635631835
"137 COTTAGE AVE, Albany, NY, 12203","64.29-3-67",42.6723265,-73.82324232946155
"438 WESTERN AVE, Albany, NY, 12203","64.60-2-6",42.66481292307692,-73.78678707692308
"405 WESTERN AVE, Albany, NY, 12203","64.60-1-8",42.6647674,-73.78554245000001
"380 WESTERN AVE, Albany, NY, 12203","64.68-1-3",42.663809836950016,-73.78367043739674
"442 WESTERN AVE, Albany, NY, 12203","64.60-2-7",42.664845846153845,-73.78689215384615
"444 WESTERN AVE, Albany, NY, 12203","64.60-2-8",42.66486230769231,-73.78694469230769
"947 MADISON AVE, Albany, NY, 12203","64.68-1-51",42.66259781322423,-73.78527581235757
"944 MADISON AVE, Albany, NY, 12208","64.68-2-13",42.66246085,-73.78575772398767
"963 MADISON AVE, Albany, NY, 12203","64.68-1-54",42.663482,-73.7867956
"955 MADISON AVE, Albany, NY, 12203","64.68-1-52",42.662729094179426,-73.78550977676052
"399 WESTERN AVE, Albany, NY, 12203","64.60-1-4",42.6646631,-73.78532074012602
"370 WESTERN AVE, Albany, NY, 12203","64.68-1-6",42.66371801587092,-73.78339578315574
"984 MADISON AVE, Albany, NY, 12208","64.68-2-4.1",42.6631328,-73.787165617066
"979 MADISON AVE, Albany, NY, 12203","64.60-2-28",42.66312293871784,-73.78621166902963
"915 MADISON AVE, Albany, NY, 12203","64.68-1-45",42.66207265021091,-73.78433997673943
"935 MADISON AVE, Albany, NY, 12203","64.68-1-48",42.662400891791435,-73.78492486575314
"1001 MADISON AVE, Albany, NY, 12203","64.60-2-23",42.663696,-73.7836719
"921 MADISON AVE, Albany, NY, 12203","64.68-1-46",42.66217112552727,-73.78451544184858
"374 WESTERN AVE, Albany, NY, 12203","64.68-1-5",42.66375474430256,-73.78350564485213
"378 WESTERN AVE, Albany, NY, 12203","64.68-1-4",42.6637914727342,-73.78361550654853
"210 PARTRIDGE ST, Albany, NY, 12203","64.68-1-23",42.662479250000004,-73.78365124999999
"384 WESTERN AVE, Albany, NY, 12203","64.68-1-2",42.663846565381654,-73.78378029909314
"206 PARTRIDGE ST, Albany, NY, 12203","64.68-1-22",42.66253775,-73.78358975
"212 PARTRIDGE ST, Albany, NY, 12203","64.68-1-24",42.6624433,-73.7838629
"923 MADISON AVE, Albany, NY, 12203","64.68-1-47",42.66220395063272,-73.7845739302183
"971 MADISON AVE, Albany, NY, 12203","64.68-1-56",42.6635132,-73.7868586
"967 MADISON AVE, Albany, NY, 12203","64.68-1-55",42.6634935,-73.7868191
"750 STATE ST, Albany, NY, 12203","65.53-2-3",42.66439805,-73.7797978998865
"221 ONTARIO ST, Albany, NY, 12203","65.53-2-10",42.6633624,-73.7793027
"1 NOTRE DAME DR, Albany, NY, 12208","76.9-2-2",42.6487349,-73.7780477
"324 STATE ST, Albany, NY, 12210","76.24-1-35",42.6549856,-73.7634975
"394 WESTERN AVE, Albany, NY, 12203","64.68-1-1",42.66393755060824,-73.78405522724236
"130 NEW SCOTLAND AVE, Albany, NY, 12208","76.05-1-8.1",42.65223935,-73.78142474061735
"432 WESTERN AVE, Albany, NY, 12203","64.60-2-5",42.664274,-73.785103
"993 MADISON AVE, Albany, NY, 12203","64.60-2-25",42.6635264,-73.7868771
"983 MADISON AVE, Albany, NY, 12203","64.60-2-27",42.663188696378114,-73.78632858540092
"994 MADISON AVE, Albany, NY, 12208","64.68-2-4.2",42.66323805,-73.78741936624306
"568 MORRIS ST, Albany, NY, 12208","64.68-3-12",42.66123655,-73.78683885000001
"1 CLARA BARTON DR, Albany, NY, 12208","76.9-2-7",42.6481644,-73.7769662
"937 MADISON AVE, Albany, NY, 12203","64.68-1-49",42.662433712030236,-73.78498335685389
"1000 MADISON AVE, Albany, NY, 12208","64.68-2-3",42.663574,-73.7874569
"943 MADISON AVE, Albany, NY, 12203","64.68-1-50",42.66253217274663,-73.78515883015609
"959 MADISON AVE, Albany, NY, 12203","64.68-1-53",42.66279473465702,-73.785626758962
"302 CENTRAL AVE, Albany, NY, 12206","65.54-1-37",42.6646066,-73.77284489404698
"435 NEW SCOTLAND AVE, Albany, NY, 12208","75.26-3-10",42.6549441,-73.79510210007558
"1400 WASHINGTON AVE, Albany, NY, 12203","53.00-1-3",42.6894994,-73.8202347
"251 FULLER RD, Albany, NY, 12203","53.00-1-4",42.690596,-73.8307948
"141 FULLER RD, Albany, NY, 12203","53.00-1-33.1",42.477614,-73.82158
"201 FULLER RD, Albany, NY, 12203","53.00-1-71",42.69229,-73.83086
"140 NEW SCOTLAND AVE, Albany, NY, 12208","76.05-1-16",42.6527155,-73.7831997
"103 WESTERN AVE, Albany, NY, 12203","65.17-1-2",42.66144745,-73.77197946741404
"80 NEW SCOTLAND AVE, Albany, NY, 12208","76.5-1-12",42.6515463,-73.77746159193549
"100 UNION DR, Albany, NY, 12208","76.09-1-8.3",42.64950435,-73.78139754515551
"930 MADISON AVE, Albany, NY, 12208","64.68-2-17",42.6621269,-73.7849101
"84 HOLLAND AVE, Albany, NY, 12208","76.9-2-1",42.6499902,-73.7751188
"391 WESTERN AVE, Albany, NY, 12203","64.60-1-3.1",42.6640785,-73.7836522
"1009 MADISON AVE, Albany, NY, 12203","64.60-2-19",42.6643835,-73.787792
"1002 MADISON AVE, Albany, NY, 12208","64.68-2-2",42.6634878,-73.78819187858275
"353-363 BROADWAY - BROADWAY, Albany, NY, 12207","76.11-2-5",42.653571,-73.748896
"106 NEW SCOTLAND AVE, Albany, NY, 12208","76.5-1-10",42.65202585,-73.77861219145161
"311 WESTERN AVE, Albany, NY, 12203","65.61-1-1",42.66375925,-73.78123752222092
"295 WESTERN AVE, Albany, NY, 12203","65.61-1-2",42.6632621,-73.78038454230597
"366 WESTERN AVE, Albany, NY, 12203","64.68-1-7",42.66368198747748,-73.7832857008414
"425 MAGAZINE ST, Albany, NY, 12203","64.29-3-14",42.672806800000004,-73.82367493636363
"408 WESTERN AVE, Albany, NY, 12203","64.60-2-3",42.6646635,-73.78575525
"134 FRANKLIN ST, Albany, NY, 12202","76.65-4-22",42.640034850000006,-73.75698933942692
"10 DEWITT ST, Albany, NY, 12207","65.20-3-6",42.65810515,-73.74477134718666
"6 DEWITT ST, Albany, NY, 12207","65.20-3-7",42.6579957,-73.7446697
"1192 BROADWAY, Albany, NY, 12204","65.36-2-49",42.67216875,-73.73847799262589
"850 S PEARL ST, Albany, NY, 12202","87.10-2-5",42.62623000000001,-73.76575921848922
"3 COMMERCE AVE, Albany, NY, 12206","65.6-1-1.2",42.67861667293471,-73.7806778483582
"104 WATERVLIET AVE, Albany, NY, 12206","54.77-1-20",42.67990125,-73.78238933032564
"341 NORTHERN BLVD, Albany, NY, 12211","65.7-2-19",42.6655624477612,-73.75681023880597
"318 CENTRAL AVE, Albany, NY, 12206","65.54-1-33",42.665085649999995,-73.77334038518686
"76 SECOND ST, Albany, NY, 12210","65.74-3-46",42.659108149999994,-73.75496775
"920 LARK DR, Albany, NY, 12207","65.15-2-8",42.66187765,-73.74800188097373
"9 SAMARITAN RD, Albany, NY, 12208","76.9-1-3",42.64731525,-73.77949040824373
"64 SHAKER RD, Albany, NY, 12204","65.7-4-1.2",42.672503750000004,-73.74968722152516
"326 S PEARL ST, Albany, NY, 12202","76.65-4-27",42.63973385,-73.75770403322159
"CHURCH ST, Albany, NY, 12202","87.7-1-4",42.63648,-73.7553688
"35 ERIE BLVD, Albany, NY, 12204","65.16-5-2",42.6656448,-73.7383831
"24 WOODVILLE AVE, Albany, NY, 12203","64.61-1-47",42.663225100000005,-73.82655371776494
"132 S LAKE AVE, Albany, NY, 12208","76.5-1-2",42.65409335,-73.7804860550664
"120 NEW SCOTLAND AVE, Albany, NY, 12208","76.5-1-9",42.651584,-73.7798973
"31 HACKETT BLVD, Albany, NY, 12208","76.9-1-6",42.6457806,-73.7799795053217
"11 SAMARITAN RD, Albany, NY, 12208","76.9-1-2",42.6473036,-73.780902
"700 S PEARL ST, Albany, NY, 12202","87.6-2-4.1",42.629696,-73.7659149
"573 LIVINGSTON AVE, Albany, NY, 12206","65.10-1-4",42.6698685,-73.76841947670648
"425 NEW SCOTLAND AVE, Albany, NY, 12208","75.26-3-12",42.6547353,-73.79462125320796
"155 WASHINGTON AVE, Albany, NY, 12210","65.80-4-29",42.6563989,-73.7617797
"103 ONTARIO ST, Albany, NY, 12206","65.46-1-17",42.667992999999996,-73.77455318148257
"1142 NEW SCOTLAND RD, Albany, NY, 12208","74.11-1-14",42.64871015,-73.84070642893096
"130 BREVATOR ST, Albany, NY, 12203","53.00-1-1",42.6770984,-73.80129485260663
"324 WASHINGTON AVE, Albany, NY, 12203","65.71-2-10",42.6593015,-73.7685094
"360 DELAWARE AVE, Albany, NY, 12209","76.61-3-66",42.6415576,-73.7796403
"170 HENRY JOHNSON BLVD, Albany, NY, 12210","65.65-2-84",42.6623893,-73.75977671602679
"441 NEW SCOTLAND AVE, Albany, NY, 12208","75.26-2-8",42.6549226,-73.79571746857971
"5 MILL RD, Albany, NY, 12208","75.00-2-8",42.63483614668667,-73.7990459243642
"45 N LARK ST, Albany, NY, 12210","65.65-2-46",42.658342,-73.7616125
"670 CLINTON AVE, Albany, NY, 12206","65.46-1-16",42.6680418,-73.77436410000001
"269 CENTRAL AVE, Albany, NY, 12206","65.63-2-68",42.66369095,-73.77069814807562
"271 CENTRAL AVE, Albany, NY, 12206","65.63-2-69",42.66371015,-73.77088505
"64 ACADEMY RD, Albany, NY, 12208","75.12-2-1.3",42.64827755,-73.78500976797686
"264 S MAIN AVE, Albany, NY, 12208","75.26-1-7",42.65503965,-73.7987538108712
"35 TAFT AVE, Albany, NY, 12203","64.21-2-51",42.67565925,-73.82254515503067
"45 VIEW AVE, Albany, NY, 12209","76.13-1-1.2",42.64298255,-73.7742356194251
"499 MYRTLE AVE, Albany, NY, 12208","65.77-4-40",42.656104,-73.77830965000001
"217 DELAWARE AVE, Albany, NY, 12209","76.46-4-14",42.6448336,-73.77344886328352
"127 VAN RENSSELAER BLVD, Albany, NY, 12204","54.84-1-8",42.6778308,-73.7430835
"105 DELAWARE AVE, Albany, NY, 12202","76.47-1-9",42.647123449999995,-73.77063191187901
"98 N LAKE AVE, Albany, NY, 12206","65.63-2-70",42.6637953,-73.7706228
"780 WASHINGTON AVE, Albany, NY, 12203","64.52-2-52",42.6683475,-73.78392216440616
"90 N MAIN AVE, Albany, NY, 12203","64.52-2-51",42.6681113,-73.784559
"80 N MAIN AVE, Albany, NY, 12203","64.52-2-50",42.6677594,-73.7849197
"1 MORTON AVE, Albany, NY, 12202","76.57-4-22",42.6422342,-73.7578642
"1134 NEW SCOTLAND RD, Albany, NY, 12208","74.11-1-13",42.6490141,-73.8389737
"289 S PEARL ST, Albany, NY, 12202","76.65-3-70",42.6415623,-73.7574017
"700 MANNING BLVD, Albany, NY, 12210","65.15-2-9.2",42.66458315,-73.7533551656582
"1123 MADISON AVE, Albany, NY, 12208","64.59-1-25",42.66616566666667,-73.79182726666666
"STATE ST, Albany, NY, 12210","76.24-1-17",42.6558456,-73.7641925
"SPRING ST, Albany, NY, 12210","76.24-1-7",42.6562746,-73.7637491
"55 MILL RD, Albany, NY, 12208","75.00-2-10",42.635198518524135,-73.80224770461733
"60 ACADEMY RD, Albany, NY, 12208","75.12-2-1.1",42.6495708,-73.7851681
"62 ACADEMY RD, Albany, NY, 12208","75.12-2-1.2",42.6485909,-73.78497211409402
"504 CENTRAL AVE, Albany, NY, 12206","65.37-3-55.22",42.6698237,-73.7789762
"98 SLINGERLAND ST, Albany, NY, 12209","76.13-1-1.1",42.64255649557518,-73.7722965105401
"1044 WESTERN AVE, Albany, NY, 12203","64.30-1-31",42.6736165,-73.8162189
"N MANNING BLVD, Albany, NY, 12206","65.37-1-15",42.67384,-73.77684
"89 HOFFMAN AVE, Albany, NY, 12209","76.17-1-32.1",42.6340372,-73.7780326
"256 HUDSON AVE, Albany, NY, 12210","76.32-2-18",42.651688,-73.7629724
"122 JAY ST, Albany, NY, 12210","76.32-1-39",42.6517602,-73.7619053
"124 JAY ST, Albany, NY, 12210","76.32-1-38",42.6518513,-73.7620011
"243 HUDSON AVE, Albany, NY, 12210","76.32-1-40",42.6516151,-73.7620241
"128 JAY ST, Albany, NY, 12210","76.32-1-37",42.6519066,-73.762122
"DELAWARE AVE, Albany, NY, 12210","76.31-4-4",42.6426129,-73.7780385
"SHERIDAN AVE, Albany, NY, 12210","65.73-2-77",42.6544879,-73.7535616
"MADISON AVE, Albany, NY, 12210","76.32-3-57",42.6440097,-73.7514307
"BROADWAY, Albany, NY, 12207","76.11-2-6",42.653571,-73.748896
"SCHUYLER ST, Albany, NY, 12202","76.65-3-61",42.6409833,-73.7574821
"BENJAMIN ST, Albany, NY, 12202","76.72-3-15",42.636662,-73.763345
"HUDSON AVE, Albany, NY, 12210","76.24-5-32",42.652632,-73.7642188
"62 SECOND AVE, Albany, NY, 12202","76.72-4-23",42.638434,-73.76349873333334
"180 FIRST ST, Albany, NY, 12210","65.73-3-5",42.6599666,-73.7581827
"139 S LAKE AVE, Albany, NY, 12208","76.21-1-10",42.6549079,-73.7812445
"183 CENTRAL AVE, Albany, NY, 12206","65.63-5-59",42.661823999999996,-73.76877048738658
"260 BRADFORD ST, Albany, NY, 12206","65.46-2-9.2",42.66689375,-73.77647760233269
"301 NORTHERN BLVD, Albany, NY, 12210","65.57-2-83",42.66653265,-73.7574072
"18 S LAKE AVE, Albany, NY, 12203","65.17-2-2",42.659946,-73.77482281998844
"232 N ALLEN ST, Albany, NY, 12206","64.36-1-9",42.67400485,-73.78452220990566
"4 CUYLER AVE, Albany, NY, 12209","75.68-3-10",42.6410409,-73.7841347
"342 FIRST ST, Albany, NY, 12206","65.64-1-1",42.66384,-73.76506022836423
"304 MADISON AVE, Albany, NY, 12202","76.10-1-10",42.65038,-73.76420300000001
"125 WASHINGTON AVE, Albany, NY, 12210","65.81-5-4.2",42.6557481,-73.7602022
"37 CLINTON ST, Albany, NY, 12202","76.65-1-23",42.641403499999996,-73.7591529
"549 S PEARL ST, Albany, NY, 12202","76.80-2-71",42.634866849999995,-73.76348238083207
"74 MONTGOMERY ST, Albany, NY, 12207","76.27-1-13.51",42.654363,-73.7478416
"177 SOUTHERN BLVD, Albany, NY, 12209","76.77-2-59",42.634761850000004,-73.78044875
"38 CATHERINE ST, Albany, NY, 12202","76.65-1-16",42.6417821,-73.7602369
"314 S MANNING BLVD, Albany, NY, 12208","75.24-2-2",42.6547492,-73.8076675
"301 WASHINGTON AVE, Albany, NY, 12206","65.71-3-41",42.65900345,-73.7671821429955
"19 HACKETT BLVD, Albany, NY, 12208","76.9-2-5",42.6465555,-73.7769776
"96 FOURTH AVE, Albany, NY, 12202","76.73-2-46.1",42.6388666,-73.75768599999999
"75 TRINITY PL, Albany, NY, 12202","76.57-2-47",42.644019842105266,-73.75685031578948
"58 PARTRIDGE ST, Albany, NY, 12206","65.45-1-25",42.667957400000006,-73.7780663418907
"75 COLVIN AVE, Albany, NY, 12206","53.83-1-4",42.6800145,-73.7935237
"PT 5 BELDALE RD, Albany, NY, 12159","63.76-1-1",42.6585657,-73.8291378
"39 AVENUE A, Albany, NY, 12208","75.27-3-32",42.6541778,-73.78936702806718
"16 SEMINOLE AVE, Albany, NY, 12203","64.40-1-25",42.6711775,-73.80975060894988
"163 COTTAGE AVE, Albany, NY, 12203","64.29-3-17",42.6729933,-73.82434292598347
"123 KRUMKILL RD, Albany, NY, 12208","64.69-3-7",42.662611679129796,-73.82177931618145
"1048 CENTRAL AVE, Albany, NY, 12205","53.66-1-34",42.6859021,-73.79723755
"260 FULLER RD, Albany, NY, 12203","53.00-1-70",42.6877735,-73.8322676
"KRUMKILL RD, Albany, NY, 12208","64.17-1-1",42.6602088,-73.817329
"1015 WESTERN AVE, Albany, NY, 12203","64.31-1-6",42.6748251,-73.8137856
"91 SHERIDAN AVE, Albany, NY, 12210","76.26-2-14",42.65504205,-73.75409059410349
"98 SHERIDAN AVE, Albany, NY, 12210","76.25-1-4",42.655061,-73.7550082
"77 SHERIDAN AVE, Albany, NY, 12210","76.26-2-13",42.6548028,-73.7536951
"75 SHERIDAN AVE, Albany, NY, 12210","76.26-2-12",42.6547639,-73.753641
"1161 WASHINGTON AVE, Albany, NY, 12206","53.00-1-10",42.68187305,-73.80318740104246
"90 KARNER RD, Albany, NY, 12203","40.00-3-17",42.72408266910472,-73.85699036513286
"59 MC ALPIN ST, Albany, NY, 12209","75.76-1-53",42.6375273,-73.78685922738087
"140 ACADEMY RD, Albany, NY, 12208","75.12-2-3",42.6459376,-73.7855243
"108 WHITEHALL RD, Albany, NY, 12209","75.67-2-1",42.64167675,-73.78991401105102
"160 N MAIN AVE, Albany, NY, 12206","64.44-3-1.1",42.6723544,-73.7830058
"500 SMITH BLVD, Albany, NY, 12202","87.11-1-2",42.6233757,-73.7588879
"30 WATERVLIET AVE, Albany, NY, 12206","64.28-2-53",42.675880250000006,-73.7833421481749
"45 TREMONT ST, Albany, NY, 12205","53.66-2-19",42.6834611,-73.79931388982789
"385 NEW SCOTLAND AVE, Albany, NY, 12208","75.27-1-37",42.65435985,-73.79386128822418
"52 SECOND ST, Albany, NY, 12210","65.82-1-47",42.65877867178925,-73.75418887547751
"67 S LANSING ST, Albany, NY, 12202","76.50-3-55",42.6442807,-73.7541827
"88 PHILIP ST, Albany, NY, 12202","76.49-5-90",42.645169,-73.7586509
"35 ELIZABETH ST, Albany, NY, 12202","76.56-2-67",42.6417859,-73.7610892
"646 S PEARL ST, Albany, NY, 12202","87.6-2-3",42.6298842,-73.7652995
"1225 WASHINGTON AVE, Albany, NY, 12206","53.00-1-9",42.6824651,-73.80372
"7 PINE ST, Albany, NY, 12207","76.34-2-33",42.6516938,-73.7536204
"40 LOUDONVILLE RD, Albany, NY, 12204","65.12-3-4",42.6669352,-73.7444013
"35 WILLETT ST, Albany, NY, 12203","65.03-1-1",42.65558,-73.766471
"20 LEARNED ST, Albany, NY, 12207","65.20-1-9",42.6604367,-73.74405875
"161 WASHINGTON AVE, Albany, NY, 12210","65.80-4-28",42.6567023,-73.76208495167855
"148 HENRY JOHNSON BLVD, Albany, NY, 12210","65.65-3-62",42.661878,-73.7602556
"455 NEW SCOTLAND AVE, Albany, NY, 12208","75.26-2-7",42.654988599999996,-73.79614811709735
"33 PLEASANT VIEW AVE, Albany, NY, 12203","64.29-2-74",42.672956049999996,-73.82288771212964
"105 SCHUYLER ST, Albany, NY, 12202","76.65-2-6",42.6413622,-73.7582631
"331 DELAWARE AVE, Albany, NY, 12209","76.53-2-25",42.643025800000004,-73.77817553240826
"101 DUNHAM, Albany, NY, 12202","87.14-2-8",42.61871125,-73.76054405603244
"301 NORMANSKILL DR, Albany, NY, 12202","87.14-2-7",42.636268,-73.796852
"136 FULLER RD, Albany, NY, 12205","53.00-1-47",42.6951527,-73.8264738
"242 SPRUCE ST, Albany, NY, 12210","65.72-4-24",42.65894145,-73.76346501615228
"1104 CENTRAL AVE, Albany, NY, 12205","53.00-1-36",42.68904125,-73.80078327063275
"1355 BROADWAY, Albany, NY, 12204","66.5-1-3",42.675512350000005,-73.73525238173369
"1003 BROADWAY, Albany, NY, 12204","65.16-4-5",42.6643404,-73.74215947292066
"1031 BROADWAY, Albany, NY, 12204","65.16-4-3",42.665018,-73.74196422911393
"222 SPRUCE ST, Albany, NY, 12210","65.72-4-28",42.6584594,-73.76229269999999
"290 DELAWARE AVE, Albany, NY, 12209","76.54-4-21",42.6428838,-73.77652428455299
"305 DUNHAM DR, Albany, NY, 12202","87.18-1-1",42.6173986,-73.7625369
"301 HACKETT BLVD, Albany, NY, 12208","75.25-1-2",42.65334,-73.805068
"325 NORTHERN BLVD, Albany, NY, 12211","65.7-2-20",42.66552698507463,-73.75684892537313
"553 CLINTON AVE, Albany, NY, 12206","65.55-5-60",42.6652982,-73.7688358
"73 N SWAN ST, Albany, NY, 12210","65.82-1-51",42.6580972,-73.7539679
"110 STATE ST, Albany, NY","76-42-1-2",42.64973905,-73.75407376431679
"125 WASHINGTON AVE, Albany, NY","65.81-5-4.2.-1",42.6558159,-73.76027855387552
"YATES ST, Albany, NY","65.77-1-45.2",42.6653663,-73.7919082
"162 COLONIAL AVE, Albany, NY","64.63-4-17",42.6626105,-73.8115226
"1110-1112 WESTERN AVE, Albany, NY","64.22-1-21",42.6693088,-73.8006358
"2 ELMO RD, Albany, NY","53.65-1-42",42.6834587,-73.80102006278825
"84-108 YARDBORO AVE, Albany, NY","53.56-2-37",42.6880705,-73.801226
"41 N MAIN AVE, Albany, NY, 12203","64.52-2-10",42.667216350000004,-73.78652336483741
"324 SHERIDAN AVE, Albany, NY, 12206","65.72-2-27",42.66019895,-73.76378751508864
"568 CLINTON AVE, Albany, NY, 12206","65.55-2-19",42.6655983,-73.7700887
"142 GREEN ST, Albany, NY, 12202","76.58-3-1",42.6430779,-73.753301
"275 N PEARL ST, Albany, NY, 12207","65.75-2-27",42.65886755,-73.74829710699657
"67 CORNING PL, Albany, NY, 12207","76.34-2-41",42.6513384,-73.7537399
"481 WASHINGTON AVE, Albany, NY, 12206","65.62-1-50",42.6630794,-73.77369
"261 N PEARL ST, Albany, NY, 12207","65.75-2-26",42.65855985,-73.74861969863034
"100 CLINTON AVE, Albany, NY, 12210","65.82-3-11",42.656175000000005,-73.75380905
"45 S FERRY ST, Albany, NY, 12202","76.58-3-4",42.64262275,-73.75377189336663
"33 RENSSELAER ST, Albany, NY, 12202","76.66-1-2.1",42.641297550000004,-73.75386620585087
"8 ERIE BLVD, Albany, NY, 12207","65.20-1-16",42.658818249999996,-73.74365044761089
"29 PLEASANT VIEW AVE, Albany, NY, 12203","64.29-2-72",42.672757950000005,-73.82254808139996
"259 FULLER RD, Albany, NY, 12203","53.00-1-51.1",42.6889843,-73.8318298
"78 MORRIS ST, Albany, NY, 12208","76.22-3-25.1",42.6525713,-73.7713716
"28 CORPORATE CIR, Albany, NY, 12203","41.00-2-58.2",42.7038548,-73.8740816
"28 CORPORATE CIR, Albany, NY, 12203","41.00-2-58.1",42.7038548,-73.8740816
"64 EAGLE ST, Albany, NY, 12207","76.10-1-10.10",42.653134675,-73.75360425
"PORT RD, Albany, NY, 12202","87.14-2-3.20",42.621152,-73.765521
"52 MORTON AVE, Albany, NY","76.56-2-20",42.64257186797197,-73.76075477659288
"216 N PEARL ST, Albany, NY, 12207","65.82-5-24",42.6571414,-73.7499302
"49 N FERRY ST, Albany, NY, 12207","65.20-1-14",42.6594931,-73.7436356
"380 WHITEHALL RD, Albany, NY, 12209","75.10-1-1.2",42.650504588446125,-73.81034057029409
"50 PHILIP ST, Albany, NY, 12207","76.49-2-32",42.646896,-73.7574303
"77 PHILIP ST, Albany, NY, 12202","76.49-1-56",42.6459075,-73.7592797
"50 SECOND ST, Albany, NY, 12210","65.82-1-46",42.6583649,-73.7537399
"40 N MAIN AVE, Albany, NY, 12203","64.60-1-1",42.6663889,-73.7861111
"37 N ALLEN ST, Albany, NY, 12203","64.51-2-7",42.66732175,-73.79056576641887
"31 PLEASANT VIEW AVE, Albany, NY, 12203","64.29-2-73",42.67287105,-73.82273594294213
"406 HACKETT BLVD, Albany, NY, 12208","75.23-1-78",42.653517,-73.8122247
"122 COTTAGE AVE, Albany, NY, 12203","64.37-2-70",42.67190935,-73.82313726827137
"123 MELROSE AVE, Albany, NY, 12203","64.33-2-24",42.6739297,-73.80089860282851
"40 FIRST AVE, Albany, NY, 12202","76.80-2-40",42.63524925,-73.76409465
"452 BRADFORD ST, Albany, NY, 12206","64.36-3-11",42.6729232,-73.78406890080365
"31 FOREST AVE, Albany, NY, 12208","75.35-3-27",42.65100205,-73.78973116285283
"66 BEVERLY AVE, Albany, NY, 12206","65.48-2-89",42.667076,-73.7605279455395
"688 PROVIDENCE ST, Albany, NY, 12208","64.84-3-74",42.65752035,-73.78800013749162
"75 FLEETWOOD AVE, Albany, NY, 12209","75.33-3-29",42.65026385,-73.80173575
"175 S PINE AVE, Albany, NY, 12208","64.73-2-55",42.660222000000005,-73.80062938769417
"72 EDGEWOOD AVE, Albany, NY, 12203","64.34-1-20",42.67437785,-73.79831844999998
"80 EDGEWOOD AVE, Albany, NY, 12203","64.34-1-17",42.674724600000005,-73.79795899239372
"82 EDGEWOOD AVE, Albany, NY, 12203","64.34-1-16",42.67481175,-73.79786605472472
"47 CLERMONT ST, Albany, NY, 12203","64.33-2-1",42.6725601,-73.80226058081928
"352 STATE ST, Albany, NY, 12210","65.80-3-55.-24",42.6556633,-73.764572
"32 ARTHUR DR, Albany, NY, 12208","75.33-2-28",42.6515294,-73.80418360099472
"352 STATE ST, Albany, NY, 12210","65.80-3-55.-64",42.6556633,-73.764572
"148 LANCASTER ST, Albany, NY, 12210","76.24-6-65.-7",42.65315459999999,-73.76282026304168
"35 MC ARDLE AVE, Albany, NY, 12206","65.57-1-36",42.66611945,-73.75932632577542
"98 BEACON AVE, Albany, NY, 12203","64.38-4-11",42.6700275,-73.81816176952908
"80 HAZELHURST AVE, Albany, NY, 12203","64.29-2-43",42.674137200000004,-73.8231505
"102 BEACON AVE, Albany, NY, 12203","64.38-4-10",42.6699036,-73.81831026952909
"131 RAMSEY PL, Albany, NY, 12209","75.50-1-52",42.646784749999995,-73.79590160210412
"349 SHERMAN ST, Albany, NY, 12206","65.46-3-67",42.6666978,-73.77331140744823
"29 EMMET ST, Albany, NY, 12204","65.52-2-75",42.6685843,-73.74182895000001
"23 BOENAU ST, Albany, NY, 12202","76.63-3-6",42.6408253,-73.768596
"490 SECOND ST, Albany, NY, 12206","65.47-2-5",42.66836925,-73.7709477830452
"55 W VAN VECHTEN ST, Albany, NY, 12209","76.62-1-50",42.6411322,-73.7766601
"4 HELDERBERG AVE, Albany, NY, 12208","75.35-2-32",42.6507044,-73.7920749683605
"7 KEELER DR, Albany, NY, 12208","75.32-1-20",42.6508379,-73.80777844866304
"7 VICTOR ST, Albany, NY, 12206","53.81-1-47",42.67878045,-73.80003886517856
"37 GLYNN ST, Albany, NY, 12203","64.29-1-12",42.674662,-73.82576745474748
"17 MOHICAN PL, Albany, NY, 12208","74.15-1-43",42.6431926,-73.8429822
"54 ORCHARD AVE, Albany, NY, 12203","63.36-1-15",42.67434765,-73.82842620806514
"39 GLYNN ST, Albany, NY, 12203","64.29-1-13",42.6745308,-73.82585077974747
"6 DANKER AVE, Albany, NY, 12206","64.26-4-16",42.67602245,-73.79488355871487
"976 NEW SCOTLAND RD, Albany, NY, 12208","75.5-4-56",42.652264,-73.8260057
"465 N PEARL ST, Albany, NY, 12204","65.52-2-77",42.66873245,-73.74207125000001
"4 VAN ORDEN AVE, Albany, NY, 12202","76.71-3-70",42.63772955,-73.76861346549097
"566 THIRD ST, Albany, NY, 12206","65.38-2-10",42.6716027,-73.7745846
"506 SECOND ST, Albany, NY, 12206","65.46-4-25",42.668714949999995,-73.77151765
"9 RAYMO ST, Albany, NY, 12209","76.62-2-36",42.639675100000005,-73.77535120219753
"17 DAYTONA AVE, Albany, NY, 12203","64.40-1-12",42.671086849999995,-73.81035582968948
"79 HILLCREST AVE, Albany, NY, 12203","64.39-2-40",42.67015115,-73.81573029473128
"534 W LAWRENCE ST, Albany, NY, 12208","64.81-1-17",42.6570224,-73.80001650292836
"177 HOLLYWOOD AVE, Albany, NY, 12209","75.42-1-67",42.64837995,-73.79764249586049
"237 POINT OF WOODS DR, Albany, NY, 12203","40.12-2-4.1",42.7143117,-73.8790613
"205 S ALLEN ST, Albany, NY, 12208","64.74-4-14",42.6600132,-73.7980071
"53 HIGHLAND AVE, Albany, NY, 12203","64.29-1-8",42.674418349999996,-73.8253481333176
"7 HILLCREST AVE, Albany, NY, 12203","64.31-1-40",42.6725642,-73.81309084839711
"24 VIEW AVE, Albany, NY, 12209","76.54-3-23",42.64388325,-73.77337784713005
"38 FULLERTON ST, Albany, NY, 12209","75.51-3-36",42.6447093,-73.78896944831881
"202 CLINTON AVE, Albany, NY, 12210","65.81-2-8",42.6582716,-73.75732968088063
"90 HOMESTEAD AVE, Albany, NY, 12203","64.42-1-73",42.6708942,-73.7966691
"31 ORMOND ST, Albany, NY, 12203","64.40-3-34",42.669508500000006,-73.80787852452912
"69 S FERRY ST, Albany, NY, 12202","76.58-2-46.-37",42.642927,-73.7551611
"30 AUSTAIN AVE, Albany, NY, 12205","53.66-2-22",42.6835789,-73.7979716
"210 LIVINGSTON AVE, Albany, NY, 12210","65.65-6-7",42.66143565,-73.75502005
"310 SECOND ST, Albany, NY, 12206","65.56-3-18",42.6644425,-73.7641898625862
"308 THIRD ST, Albany, NY, 12206","65.56-2-28",42.665314800000004,-73.76387804999999
"13 JUDSON ST, Albany, NY, 12206","65.56-3-67",42.6642115,-73.7656634
"16 GARDEN AVE, Albany, NY, 12203","64.29-1-57",42.6730127,-73.8268997
"19 LAWN AVE, Albany, NY, 12204","66.21-2-25",42.6757341,-73.73744035599975
"32 AUSTAIN AVE, Albany, NY, 12205","53.66-2-21",42.683540550000004,-73.79806581641063
"9 AUSTAIN AVE, Albany, NY, 12206","53.66-3-22",42.684529772333796,-73.79588396941824
"187 SYCAMORE ST, Albany, NY, 12209","75.42-1-27",42.64821775,-73.79892629307835
"7 TURNER PL, Albany, NY, 12209","75.42-1-16",42.64776865,-73.7996698617475
"84 PINEHURST AVE, Albany, NY, 12203","64.39-2-47",42.66978045,-73.81540705
"328 MOUNTAIN ST, Albany, NY, 12209","76.77-1-40",42.6355255,-73.78134994999999
"372 MOUNTAIN ST, Albany, NY, 12209","75.84-1-19",42.63596355,-73.7839155
"41 BUELL ST, Albany, NY, 12206","53.82-2-15",42.678383499999995,-73.79426748611817
"50 BEACH AVE, Albany, NY, 12203","64.45-3-21",42.6674003,-73.8230415658447
"38 ELMHURST AVE, Albany, NY, 12203","64.37-1-49",42.67197755,-73.82576249831001
"90 EDGEWOOD AVE, Albany, NY, 12203","64.26-2-46",42.67513995,-73.79746795
"48 FOUNTAIN AVE, Albany, NY, 12203","64.45-2-38",42.668134050000006,-73.8230914745115
"40 MARIETTE PL, Albany, NY, 12209","75.58-1-16",42.64293255,-73.79871060865052
"126 ROSEMONT ST, Albany, NY, 12203","64.25-1-11",42.67653675,-73.80023081727393
"24 COLLINS PL, Albany, NY, 12208","64.79-2-12",42.6566648,-73.81521535
"30 JOHN DAVID LN, Albany, NY, 12208","75.32-2-18",42.6516175,-73.81007332254197
"17 CRESCENT DR, Albany, NY, 12208","64.70-1-5",42.658743900000005,-73.81696377364048
"10 GARDEN ST, Albany, NY, 12209","76.62-3-7",42.64154165,-73.77377675244159
"52 S SWAN ST, Albany, NY, 12210","76.25-2-19.-5203",42.6551145,-73.7583372
"21 FIRST AVE, Albany, NY, 12202","76.80-2-5",42.635496399999994,-73.7632236
"200 HOLLYWOOD AVE, Albany, NY, 12209","75.50-1-19",42.6468584,-73.79798350211786
"222 MORRIS ST, Albany, NY, 12208","76.22-2-9",42.65514435,-73.7759908894685
"1 COLUMBIA PL, Albany, NY, 12210","76.26-3-23.2",42.653404300000005,-73.75298493499866
"427 CENTRAL AVE, Albany, NY, 12206","65.46-1-51",42.6679221,-73.77575685
"363 CENTRAL AVE, Albany, NY, 12206","65.54-1-11",42.666425950000004,-73.77368671559712
"19 GLENDALE AVE, Albany, NY, 12208","75.35-3-75",42.6518746,-73.7885718
"355 STATE ST, Albany, NY, 12210","65.80-3-28.-304",42.6562031,-73.764247
"585 SECOND ST, Albany, NY, 12206","65.38-2-58",42.6707957,-73.7744876
"8 LAWN AVE, Albany, NY, 12204","66.21-2-36",42.675210899999996,-73.73702981305237
"11 LARK ST, Albany, NY, 12210","65.65-7-16",42.6631232,-73.75601599999999
"107 MOUNT HOPE DR, Albany, NY, 12202","87.23-1-61",42.631913,-73.7682596
